Order ID,SLS Tracking Number,Shopee Order SN,Longitude,Latitude,Sort Code Name,Town Name,Location Type,Driver ID,Driver Name,Driver Phone,Received Time,Current Station Received Time,Delivering Time,Delivered Time,OnHold Time,OnHoldReason,Reschedule Date,Status,Reject remark,COD Amount,Manifest Number,Order Account,Original ASF,Rounding ASF,Total of On Hold Times,Reschedule Time,Delivery Attempts,Bulky Type,SLA Target Date,Time to SLA,Payment Method,Current Station,Shop ID,Shop Category,Zone ID,Zone,Destination Station,Next Station,Pickup Station,Ros,Driver Contract Type,Pick Up Time,Collected Time,Transported to sp time,SLA Tag,High Value,Specical Dg Type,Damaged Tag,Return Destination,Chargeable Weight,Cache Type
PH262137795415J,PH262137795415J,260107E61C8N53,120.92309,15.613352,A-219-TVR-TVR-017-04,Campos,Office,0,,,2026-01-08 19:54:13,2026-01-08 19:54:13,,,,Normal,0,LMHub_Received,,207,,Marketplace,56.16,56.1592,0,/,0,Non-Bulky,Pending,,COD,Talavera Hub,117170182,COMMON,T-13-CAVBU.1,Campos/Burnay (1),Talavera Hub,,Talavera Hub,YES,,,,,Normal,N,Non-DG,,1798,0.1,Non-Cache Booking
PH265251040129O,PH265251040129O,260108FVC5GC3E,120.920695,15.597018,A-219-TVR-S5-bsc-TVR-016-04,Calipahan,Home,0,,,2026-01-08 19:50:06,2026-01-08 19:50:06,,,,Normal,0,LMHub_Received,,357,,Marketplace,72,71.9992,0,/,0,Non-Bulky,Pending,,COD,Talavera Hub,92742167,COMMON,T-10-CALI.1,"Calipahan Purok 1,3A",Talavera Hub,,Talavera Hub,YES,,,,,Normal,N,Non-DG,,1798,2.25,Non-Cache Booking
PH269718324274D,PH269718324274D,260108G31U9NE3,120.93167,15.541891,A-219-TVR-TVR-046-04,San Miguel Na Munti,Home,0,,,2026-01-08 22:21:55,2026-01-09 04:11:20,,,,Normal,0,LMHub_Received,,0,,Marketplace,42,42,0,/,0,Non-Bulky,Pending,,NON-COD,Talavera Hub,427399601,COMMON,T-02-PIMUN.3,San Miguel lower,Talavera Hub,,DOP-DTS - ZNH Online Shop,NO,,,,,Normal,N,Non-DG,,2199,0.8,Non-Cache Booking
PH2606710831204,PH2606710831204,260108G6BRPX3Q,120.917931,15.574877,A-219-TVR-TVR-041-04,Poblacion Sur,Office,0,,,2026-01-08 20:37:40,2026-01-09 03:38:35,,,,Normal,0,LMHub_Received,,1645,,Marketplace,250.21,250.212,0,/,0,Bulky,Pending,,COD,Talavera Hub,1653712716,COMMON,T-04-POSUR.1,Poblacion Sur 1,Talavera Hub,,FM DTS Cluster 7,YES,,,,,Normal,N,Non-DG,,1873,15.429,Non-Cache Booking
PH260742564012V,PH260742564012V,260108G610DWAV,120.8853,15.657712,A-219-TVR-SDO-014-04,Malayantoc,Home,0,,,2026-01-08 21:48:01,2026-01-09 04:02:58,,,,Normal,0,LMHub_Received,,813,,Marketplace,170.55,170.5528,0,/,0,Non-Bulky,Pending,,COD,Talavera Hub,554184942,COMMON,S-01-MATOC.2,Malayantoc,Talavera Hub,,FM DTS Cluster 7,YES,,,,,Normal,N,Non-DG,,3474,11,Non-Cache Booking
PH265081372075R,PH265081372075R,260108G56T53HG,120.92424,15.559613,A-219-TVR-TVR-023-04,Dinarayat,Home,0,,,2026-01-08 20:20:53,2026-01-09 04:19:13,,,,Normal,0,LMHub_Received,,211,,Marketplace,43.18,43.1816,0,/,0,Non-Bulky,Pending,,COD,Talavera Hub,83248710,COMMON,T-03-DILAT.1,La Torre/ Dinarayat,Talavera Hub,,DOP-DTS - 3PL Courier,YES,,,,,Normal,N,Non-DG,,3644,0.223,Non-Cache Booking
PH269659801056O,PH269659801056O,260108FYGKCQQU,120.921486,15.583624,A-219-TVR-TVR-032-04,Maestrang Kikay (Pob.),,0,,,2026-01-08 23:36:10,2026-01-09 03:06:13,,,,Normal,0,LMHub_Received,,0,,Marketplace,166,166,0,/,0,Bulky,Pending,,NON-COD,Talavera Hub,174376823,COMMON,T-05-KIKAY.2,Maestrang Kikay 2,Talavera Hub,,Drop off Sellers,NO,,,,,Normal,N,Non-DG,,520,10.183,Non-Cache Booking
SPEPH065029881231,PH269498109004U,S5818290O17774,120.9159164,15.6157703,A-219-TVR-TVR-047-04,San Pascual,,0,,,2026-01-08 17:02:56,2026-01-09 03:55:24,,,,Normal,0,LMHub_Received,,2890,,NS Marketplace Standard,134,,0,/,0,N/A,Pending,,COD,Talavera Hub,1605728534,,T-12-PASSI.3,San Pascual 4-01,Talavera Hub,,FM DTS Cluster 5,NO,,,,,Normal,N,Non-DG,,3632,4,Non-Cache Booking
PH265315553347R,PH265315553347R,260108G2N177ED,120.824234,15.575329,A-219-TVR-SDO-024-04,Santo Rosario,Home,0,,,2026-01-08 18:39:36,2026-01-09 03:14:17,,,,Normal,0,LMHub_Received,,207,,Marketplace,45.16,45.1592,0,/,0,Non-Bulky,Pending,,COD,Talavera Hub,1310022347,COMMON,S-04-STORO.3,Gen Luna,Talavera Hub,,Valenzuela Hub,YES,,,,,Normal,N,Non-DG,,2199,1.975,Non-Cache Booking
PH2643052954215,PH2643052954215,260108FYH0Q59E,120.885651,15.645375,A-219-TVR-SDO-001-04,Baloc,Home,0,,,2026-01-08 22:52:00,2026-01-09 04:44:46,,,,Normal,0,LMHub_Received,,224,,Marketplace,55.25,55.2544,0,/,0,Non-Bulky,Pending,,COD,Talavera Hub,1049419135,COMMON,S-01-BALOC.4,"Baloc Purok 4,5,6,7 (2)",Talavera Hub,,FM DTS Cluster 7,YES,,,,,Normal,N,Non-DG,,5008,3,Non-Cache Booking
PH268712719442G,PH268712719442G,260108G1BJQ023,120.88123,15.701282,A-219-TVR-TVR-035-04,Matingkis,,0,,,2026-01-08 23:32:24,2026-01-09 03:16:20,,,,Normal,0,LMHub_Received,,1736,,Marketplace,250.72,250.7216,0,/,0,Bulky,Pending,,COD,Talavera Hub,915873510,COMMON,"T-16-BAKMA,3",Matingkis,Talavera Hub,,DOP-DTS - MALLESONS PLASTIC- Guiguinto,YES,,,,,Normal,N,Non-DG,,12,15.635,Non-Cache Booking
PH263817171132U,PH263817171132U,260108FVMP8K2C,120.93026,15.626585,A-219-TVR-TVR-034-04,Marcos District (Pob.),,0,,,2026-01-08 18:04:49,2026-01-09 03:07:27,,,,Normal,0,LMHub_Received,,741,,Marketplace,80.15,80.1496,0,/,0,Bulky,Pending,,COD,Talavera Hub,131895642,COMMON,T-08-MARMA.1,Matias/Marcos,Talavera Hub,,FM DTS Cluster 2,YES,,,,,Normal,N,Non-DG,,2349,5,Non-Cache Booking
PH2647958860666,PH2647958860666,260108FFJ9KU38,120.93026,15.626585,A-219-TVR-TVR-045-04,Sampaloc,Home,0,,,2026-01-08 19:45:39,2026-01-09 03:27:51,,,,Normal,0,LMHub_Received,,0,,Marketplace,91,91,0,/,0,Non-Bulky,Pending,,NON-COD,Talavera Hub,54400115,COMMON,T-09-SALOD.3,Sampaloc,Talavera Hub,,FM DTS Cluster 3,NO,,,,,Normal,N,Non-DG,,13,5.143,Non-Cache Booking
PH260185644735W,PH260185644735W,260108FXK8YTWT,120.93015,15.545124,A-219-TVR-TVR-040-04,Pinagpanaan,,0,,,2026-01-08 21:20:16,2026-01-09 03:11:32,,,,Normal,0,LMHub_Received,,1122,,Marketplace,142.28,142.2832,0,/,0,Non-Bulky,Pending,,COD,Talavera Hub,973554225,COMMON,T-02-PIMUN.1,Pinagpanaan Lower,Talavera Hub,,FM DTS Cluster 6,NO,,,,,Normal,N,Non-DG,,2753,8.871,Non-Cache Booking
PH262472620283I,PH262472620283I,260108FYN0FY57,120.92033,15.573547,A-219-TVR-TVR-029-04,La Torre,Office,0,,,2026-01-08 18:30:30,2026-01-09 04:33:10,,,,Normal,0,LMHub_Received,,418,,Marketplace,68.34,68.3408,0,/,0,Non-Bulky,Pending,,COD,Talavera Hub,962815257,COMMON,T-03-DILAT.4,"La Torre Purok 4,5",Talavera Hub,,Drop off Sellers,NO,,,,,Normal,N,Non-DG,,3414,3.6,Non-Cache Booking
PH2648672238019,PH2648672238019,260107E1KV90RG,120.918292,15.589366,A-219-TVR-TVR-044-04,Purok Matias (Pob.),,0,,,2026-01-08 22:40:11,2026-01-09 03:42:20,,,,Normal,0,LMHub_Received,,819,,Marketplace,155.59,155.5864,0,/,0,Bulky,Pending,,COD,Talavera Hub,780985885,COMMON,T-08-MARMA.1,Matias/Marcos,Talavera Hub,,Drop off Sellers,NO,,,,,Normal,N,Non-DG,,1823,10,Non-Cache Booking
PH263152033563B,PH263152033563B,260108FVK3PYUD,120.916817,15.616735,A-219-TVR-TVR-030-04,Lomboy,Home,0,,,2026-01-08 22:43:09,2026-01-09 03:43:20,,,,Normal,0,LMHub_Received,,810,,Marketplace,80.54,80.536,0,/,0,Non-Bulky,Pending,,COD,Talavera Hub,1177039138,COMMON,T-11-PASLO.3,Lomboy,Talavera Hub,,Drop off Sellers,YES,,,,,Normal,N,Non-DG,,1823,4.952,Non-Cache Booking
PH262144722468H,PH262144722468H,260108FXA449CH,120.875648,15.596375,A-219-TVR-SDO-001-04,Baloc,,0,,,2026-01-08 17:28:01,2026-01-09 03:49:01,,,,Normal,0,LMHub_Received,,2200,,Marketplace,118.32,118.32000000000001,0,/,0,Bulky,Pending,,COD,Talavera Hub,778397714,COMMON,S-01-BALOC.4,"Baloc Purok 4,5,6,7 (2)",Talavera Hub,,MFM Valenzuela,YES,,,,,Normal,N,Non-DG,,1016,6.858,Non-Cache Booking
PH2671116156027,PH2671116156027,260108FQFD4PJY,120.91829,15.585003,A-219-TVR-TVR-037-04,Pag-Asa (Pob.),,0,,,2026-01-08 17:27:27,2026-01-09 03:57:44,,,,Normal,0,LMHub_Received,,0,,Marketplace,66,66,0,/,0,Non-Bulky,Pending,,NON-COD,Talavera Hub,1539355493,COMMON,T-06-PAGSA.2,Pag Asa 2,Talavera Hub,,FM DTS Cluster 6,NO,,,,,Normal,N,Non-DG,,3394,3.192,Non-Cache Booking
PH268457186927P,PH268457186927P,260108FYQXXUGR,120.921652,15.567932,A-219-TVR-TVR-029-04,La Torre,Office,0,,,2026-01-08 19:34:15,2026-01-09 04:12:35,,,,Normal,0,LMHub_Received,,629,,Marketplace,94.52,94.5224,0,/,0,Non-Bulky,Pending,,COD,Talavera Hub,1478793463,COMMON,T-03-DILAT.4,"La Torre Purok 4,5",Talavera Hub,,DOP-DTS - Etrustek- Plaridel,NO,,,,,Normal,N,Non-DG,,63,5.852,Non-Cache Booking
PH261190727091B,PH261190727091B,260108G09S7PMY,120.90943,15.624204,A-219-TVR-TVR-047-04,San Pascual,Home,0,,,2026-01-08 22:55:26,2026-01-09 04:24:38,,,,Normal,0,LMHub_Received,,0,,Marketplace,42,42,0,/,0,Non-Bulky,Pending,,NON-COD,Talavera Hub,426800077,COMMON,T-12-PASSI.2,Bagong Silang,Talavera Hub,,DOP-DTS - 3PL Courier,NO,,,,,Normal,N,Non-DG,,12,0.87,Non-Cache Booking
PH263516733211Y,PH263516733211Y,260108FYT7BU0S,120.925957,15.618124,A-219-TVR-TVR-013-04,Burnay,Home,0,,,2026-01-08 18:34:59,2026-01-09 04:03:11,,,,Normal,0,LMHub_Received,,582,,Marketplace,94.26,94.2592,0,/,0,Bulky,Pending,,COD,Talavera Hub,1081175107,COMMON,T-13-CAVBU.2,Campos/Burnay (2),Talavera Hub,,Valenzuela Hub,YES,,,,,Normal,N,Non-DG,,2199,5.431,Non-Cache Booking
PH260736878785U,PH260736878785U,260107EBXWNV8Q,120.91916,15.588052,A-219-TVR-TVR-037-04,Pag-Asa (Pob.),Office,0,,,2026-01-08 20:00:39,2026-01-09 03:50:56,,,,Normal,0,LMHub_Received,,279,,Marketplace,55.56,55.5624,0,/,0,Non-Bulky,Pending,,COD,Talavera Hub,505658876,COMMON,T-08-MARMA.2,Marcos 1,Talavera Hub,,FM DTS Cluster 6,NO,,,,,Normal,N,Non-DG,,2810,3,Non-Cache Booking
PH2664621010230,PH2664621010230,260108FWB59YP7,120.91735,15.669037,A-219-TVR-TVR-004-04,Bakal I,Home,0,,,2026-01-08 15:32:46,2026-01-09 04:02:38,,,,Normal,0,LMHub_Received,,0,,Marketplace,91,91,0,/,0,Non-Bulky,Pending,,NON-COD,Talavera Hub,84408740,COMMON,T-15-BAKAL.2,Bakal Uno (2),Talavera Hub,,FM DTS Cluster 2,NO,,,,,Normal,N,Non-DG,,4550,5.999,Non-Cache Booking
PH269053383463N,PH269053383463N,260108FRB6YBYA,120.923087,15.605527,A-219-TVR-S5-bsc-TVR-016-04,Calipahan,,0,,,2026-01-08 23:00:51,2026-01-09 04:34:21,,,,Normal,0,LMHub_Received,,59,,Marketplace,44.33,44.3304,0,/,0,Non-Bulky,Pending,,COD,Talavera Hub,22666700,COMMON,T-10-CALI.2,"Calipahan Purok 1,3B",Talavera Hub,,FM DTS Cluster 7,YES,,,,,Normal,N,Non-DG,,1873,1.143,Non-Cache Booking
PH267242169446I,PH267242169446I,260108FVUCSXVD,120.917252,15.589829,A-219-TVR-TVR-001-04,Andal Alino (Pob.),Home,0,,,2026-01-08 21:28:14,2026-01-09 03:12:29,,,,Normal,0,LMHub_Received,,102,,Marketplace,42.57,42.5712,0,/,0,Non-Bulky,Pending,,COD,Talavera Hub,359412978,COMMON,T-09-SALOD.2,Andal Alino,Talavera Hub,,FM DTS Cluster 5,YES,,,,,Normal,N,Non-DG,,4687,1,Non-Cache Booking
PH2637148679598,PH2637148679598,260108FWKPYS0B,120.9416,15.649,A-219-TVR-TVR-051-04,Tabacao,Home,0,,,2026-01-08 18:58:10,2026-01-09 04:04:19,,,,Normal,0,LMHub_Received,,1385,,Marketplace,73.76,73.756,0,/,0,Bulky,Pending,,COD,Talavera Hub,1303117543,COMMON,T-14-TASIC.2,Tabacao 2,Talavera Hub,,FM DTS Cluster 7,YES,,,,,Normal,N,Non-DG,,1104,4,Non-Cache Booking
PH267680712133T,PH267680712133T,260108FT8WY7C2,120.918905,15.576499,A-219-TVR-TVR-041-04,Poblacion Sur,,0,,,2026-01-08 20:59:38,2026-01-09 04:14:11,,,,Normal,0,LMHub_Received,,110,,Marketplace,42.62,42.616,0,/,0,Non-Bulky,Pending,,COD,Talavera Hub,936475216,COMMON,T-04-POSUR.1,Poblacion Sur 1,Talavera Hub,,Drop off Sellers,YES,,,,,Normal,N,Non-DG,,1879,0.1,Non-Cache Booking
PH266019220941O,PH266019220941O,260108FXXR2DGH,120.93026,15.626585,A-219-TVR-TVR-052-04,Tagaytay,,0,,,2026-01-08 22:22:30,2026-01-09 04:03:20,,,,Normal,0,LMHub_Received,,96,,Marketplace,42.54,42.5376,0,/,0,Non-Bulky,Pending,,COD,Talavera Hub,756938414,COMMON,T-14-TASIC.6,Bulac,Talavera Hub,,DOP-DTS - ZNH Online Shop,YES,,,,,Normal,N,Non-DG,,2199,0.6,Non-Cache Booking
PH263651437181X,PH263651437181X,260108FS3JYW5X,120.91752,15.58848,A-219-TVR-TVR-037-04,Pag-Asa (Pob.),,0,,,2026-01-08 16:31:36,2026-01-09 03:52:20,,,,Normal,0,LMHub_Received,,1850,,Marketplace,52.36,52.36,0,/,0,Non-Bulky,Pending,,COD,Talavera Hub,832286125,COMMON,T-06-PAGSA.2,Pag Asa 2,Talavera Hub,,San Jose Del Monte Hub,YES,,,,,Normal,N,Non-DG,,903,1,Non-Cache Booking
PH267451873462G,PH267451873462G,260108FUXPCGW0,120.919716,15.590258,A-219-TVR-TVR-044-04,Purok Matias (Pob.),Office,0,,,2026-01-08 18:50:46,2026-01-09 03:28:29,,,,Normal,0,LMHub_Received,,353,,Marketplace,67.98,67.9768,0,/,0,Non-Bulky,Pending,,COD,Talavera Hub,910870414,COMMON,T-08-MARMA.1,Matias/Marcos,Talavera Hub,,FM DTS Cluster 4,YES,,,,,Normal,N,Non-DG,,5001,3.344,Non-Cache Booking
PH267748217811G,PH267748217811G,260108FPERW5K3,120.89823,15.579988,A-219-TVR-SDO-007-04,Concepcion,Home,0,,,2026-01-08 16:21:11,2026-01-09 04:00:09,,,,Normal,0,LMHub_Received,,0,,Marketplace,151,151,0,/,0,Bulky,Pending,,NON-COD,Talavera Hub,84408740,COMMON,S-03-ADOCO.1,San Agustin/Dolores/Concepcion,Talavera Hub,,FM DTS Cluster 2,NO,,,,,Normal,N,Non-DG,,4550,9.271,Non-Cache Booking
PH2663061175489,PH2663061175489,260108FRHQQSJQ,120.91752,15.58848,A-219-TVR-TVR-037-04,Pag-Asa (Pob.),,0,,,2026-01-08 16:31:40,2026-01-09 04:09:12,,,,Normal,0,LMHub_Received,,1087,,Marketplace,48.09,48.0872,0,/,0,Non-Bulky,Pending,,COD,Talavera Hub,832286125,COMMON,T-06-PAGSA.2,Pag Asa 2,Talavera Hub,,San Jose Del Monte Hub,YES,,,,,Normal,N,Non-DG,,903,1,Non-Cache Booking
PH266741780414J,PH266741780414J,260108FV2VW1B3,120.9151,15.588854,A-219-TVR-TVR-001-04,Andal Alino (Pob.),,0,,,2026-01-08 20:18:11,2026-01-09 03:41:17,,,,Normal,0,LMHub_Received,,255,,Marketplace,43.43,43.428,0,/,0,Non-Bulky,Pending,,COD,Talavera Hub,373456591,COMMON,T-09-SALOD.2,Andal Alino,Talavera Hub,,FM DTS Cluster 7,YES,,,,,Normal,N,Non-DG,,1016,0.8,Non-Cache Booking
PH268358050971R,PH268358050971R,260108FPQK4N90,120.90978,15.623491,A-219-TVR-TVR-047-04,San Pascual,Home,0,,,2026-01-08 18:41:03,2026-01-09 03:56:55,,,,Normal,0,LMHub_Received,,172,,Marketplace,54.96,54.9632,0,/,0,Non-Bulky,Pending,,COD,Talavera Hub,796136847,COMMON,T-12-PASSI.2,Bagong Silang,Talavera Hub,,Drop off Sellers,YES,,,,,Normal,N,Non-DG,,5008,2.16,Non-Cache Booking
PH2667775519143,PH2667775519143,260108FUAFT8BA,120.920502,15.575441,A-219-TVR-TVR-041-04,Poblacion Sur,Office,0,,,2026-01-08 15:37:41,2026-01-09 04:11:17,,,,Normal,0,LMHub_Received,,727,,Marketplace,58.07,58.071200000000005,0,/,0,Non-Bulky,Pending,,COD,Talavera Hub,197008537,COMMON,T-04-POSUR.2,Poblacion Sur 2,Talavera Hub,,FM DTS Cluster 2,NO,,,,,Normal,N,Non-DG,,2180,2.44,Non-Cache Booking
PH264312725110X,PH264312725110X,260108FV1SMKC9,120.918271,15.589408,A-219-TVR-TVR-044-04,Purok Matias (Pob.),,0,,,2026-01-08 22:12:59,2026-01-09 03:39:59,,,,Normal,0,LMHub_Received,,2300,,Marketplace,163.88,163.88,0,/,0,Bulky,Pending,,COD,Talavera Hub,1169485117,COMMON,T-08-MARMA.1,Matias/Marcos,Talavera Hub,,FM DTS Cluster 7,NO,,,,,Normal,N,Non-DG,,3414,10,Non-Cache Booking
PH263163287317U,PH263163287317U,260108FQ8NN76Y,120.920586,15.585783,A-219-TVR-TVR-034-04,Marcos District (Pob.),Home,0,,,2026-01-08 20:54:46,2026-01-09 04:46:05,,,,Normal,0,LMHub_Received,,116,,Marketplace,42.65,42.6496,0,/,0,Non-Bulky,Pending,,COD,Talavera Hub,1344634724,COMMON,T-08-MARMA.1,Matias/Marcos,Talavera Hub,,DOP-DTS - Etrustek- Plaridel,YES,,,,,Normal,N,Non-DG,,63,0.229,Non-Cache Booking
PH263816677912S,PH263816677912S,260108FMKRJD94,120.891518,15.68611,A-219-TVR-TVR-004-04,Bakal I,,0,,,2026-01-08 23:07:00,2026-01-09 04:47:27,,,,Normal,0,LMHub_Received,,95,,Marketplace,42.53,42.532,0,/,0,Non-Bulky,Pending,,COD,Talavera Hub,1572386019,COMMON,T-15-BAKAL.1,Bakal Uno (1),Talavera Hub,,DOP-DTS - Etrustek- Plaridel,YES,,,,,Normal,N,Non-DG,,63,0.1,Non-Cache Booking
PH264540052858U,PH264540052858U,260108FTNGEDDP,120.920166,15.596258,A-219-TVR-TVR-001-04,Andal Alino (Pob.),Office,0,,,2026-01-08 20:07:47,2026-01-09 03:40:39,,,,Normal,0,LMHub_Received,,201,,Marketplace,77.13,77.1256,0,/,0,Bulky,Pending,,COD,Talavera Hub,455773979,COMMON,T-10-CALI.1,"Calipahan Purok 1,3A",Talavera Hub,,FM DTS Cluster 6,NO,,,,,Normal,N,Non-DG,,1016,4.252,Non-Cache Booking
PH269936238604N,PH269936238604N,260108FTFKMNNG,120.899467,15.573049,A-219-TVR-SDO-008-04,Dolores,Home,0,,,2026-01-08 18:44:43,2026-01-09 03:53:25,,,,Normal,0,LMHub_Received,,0,,Marketplace,42,42,0,/,0,Non-Bulky,Pending,,NON-COD,Talavera Hub,877476807,COMMON,S-03-ADOCO.1,San Agustin/Dolores/Concepcion,Talavera Hub,,FM DTS Cluster 6,NO,,,,,Normal,N,Non-DG,,1920,0.715,Non-Cache Booking
PH261255692332K,PH261255692332K,260108FTAFJ708,120.84617,15.628359,A-219-TVR-SDO-006-04,Comitang,Home,0,,,2026-01-08 19:31:26,2026-01-09 03:47:40,,,,Normal,0,LMHub_Received,,1454,,Marketplace,294.14,294.1424,0,/,0,Bulky,Pending,,COD,Talavera Hub,1387619007,COMMON,S-04-STORO.3,Gen Luna,Talavera Hub,,DOP-DTS - MALLESONS PLASTIC- Guiguinto,YES,,,,,Normal,N,Non-DG,,12,18.954,Non-Cache Booking
PH261988654456J,PH261988654456J,260108FT2C6K7J,120.93456,15.653309,A-219-TVR-TVR-051-04,Tabacao,Home,0,,,2026-01-08 21:02:51,2026-01-09 04:12:20,,,,Normal,0,LMHub_Received,,118,,Marketplace,54.66,54.6608,0,/,0,Non-Bulky,Pending,,COD,Talavera Hub,549183604,COMMON,T-14-TASIC.2,Tabacao 2,Talavera Hub,,FM DTS Cluster 7,YES,,,,,Normal,N,Non-DG,,1873,2.572,Non-Cache Booking
PH2647963873568,PH2647963873568,260108FSGHVC8V,120.91794,15.606153,A-219-TVR-TVR-047-04,San Pascual,Home,0,,,2026-01-08 14:34:31,2026-01-09 03:27:06,,,,Normal,0,LMHub_Received,,674,,SPX Express,69.77,69.7744,0,/,0,Bulky,Pending,,COD,Talavera Hub,804104458,COMMON,T-11-PASLO.1,San Pascual 2,Talavera Hub,,PHX Warehouse,NO,,,,,Normal,N,Non-DG,,2133,4,Non-Cache Booking
PH261540813496U,PH261540813496U,260108FMFK3AKF,120.914478,15.585995,A-219-TVR-TVR-007-04,Baluga,Home,0,,,2026-01-08 20:52:49,2026-01-09 03:59:01,,,,Normal,0,LMHub_Received,,638,,Marketplace,244.57,244.5728,0,/,0,Bulky,Pending,,COD,Talavera Hub,1259924652,COMMON,T-01-PABAH.3,Baluga,Talavera Hub,,FM DTS Cluster 1,YES,,,,,Normal,N,Non-DG,,3632,16,Non-Cache Booking
PH267891841422Y,PH267891841422Y,260108FSF7W6N1,120.96076,15.57199,A-219-TVR-TVR-026-04,Homestead I,,0,,,2026-01-08 21:42:32,2026-01-09 04:11:01,,,,Normal,0,LMHub_Received,,450,,Marketplace,68.52,68.52,0,/,0,Non-Bulky,Pending,,COD,Talavera Hub,965404721,COMMON,T-01-PABAH.2,Homestead,Talavera Hub,,Drop off Sellers,YES,,,,,Normal,N,Non-DG,,1879,3.57,Non-Cache Booking
PH267571446128B,PH267571446128B,260108FSS5GV7R,120.937433,15.613732,A-219-TVR-TVR-031-04,Mabuhay,Home,0,,,2026-01-08 17:11:02,2026-01-08 22:19:21,,,,Normal,0,LMHub_Received,,0,,Marketplace,66,66,0,/,0,Non-Bulky,Pending,,NON-COD,Talavera Hub,554184942,COMMON,T-17-COLMA-.1,Bantug Hacienda / Collado / Mabuhay / Cabubulaunan-01,Talavera Hub,,FM DTS Cluster 7,NO,,,,,Normal,N,Non-DG,,3474,3.858,Non-Cache Booking
PH265529799224N,PH265529799224N,260108FRJP8DYU,120.91933,15.58826,A-219-TVR-TVR-037-04,Pag-Asa (Pob.),,0,,,2026-01-08 13:20:46,2026-01-09 03:47:50,,,,Normal,0,LMHub_Received,,233,,SPX Express,67.31,67.3048,0,/,0,Bulky,Pending,,COD,Talavera Hub,27809003,COMMON,T-06-PAGSA.2,Pag Asa 2,Talavera Hub,,PHB Scommerce,YES,,,,,Normal,N,Non-DG,,2796,3.5,Non-Cache Booking
PH265443135713X,PH265443135713X,260108FRW9UJ9N,120.919922,15.592326,A-219-TVR-TVR-024-04,Esguerra District (Pob.),Home,0,,,2026-01-08 19:06:02,2026-01-09 04:09:04,,,,Normal,0,LMHub_Received,,528,,Marketplace,273.96,273.9568,0,/,0,Non-Bulky,Pending,,COD,Talavera Hub,1076880688,COMMON,T-07-GUERA.1,Esguerra 1,Talavera Hub,,FM DTS Cluster 7,YES,,,,,Normal,N,Non-DG,,1879,17.472,Non-Cache Booking
PH263755903727T,PH263755903727T,260107DCT6Y8JQ,120.94834,15.562048,A-219-TVR-TVR-007-04,Baluga,,0,,,2026-01-08 14:12:58,2026-01-09 03:50:13,,,,Normal,0,LMHub_Received,,339,,Marketplace,77.9,77.8984,0,/,0,Bulky,Pending,,COD,Talavera Hub,123368246,COMMON,T-01-PABAH.3,Baluga,Talavera Hub,,San Jose Del Monte Hub,NO,,,,,Normal,N,Non-DG,,903,4.2,Non-Cache Booking
PH2684304944002,PH2684304944002,260108FS2RA4HT,120.884164,15.706021,A-219-TVR-TVR-035-04,Matingkis,Home,0,,,2026-01-08 21:41:10,2026-01-09 04:03:07,,,,Normal,0,LMHub_Received,,0,,Marketplace,226,226,0,/,0,Non-Bulky,Pending,,NON-COD,Talavera Hub,975865584,COMMON,"T-16-BAKMA,3",Matingkis,Talavera Hub,,DOP-DTS - DARI Trucking,NO,,,,,Normal,N,Non-DG,,3142,15,Non-Cache Booking
PH263819694058W,PH263819694058W,260108FQX3ABBN,120.9177,15.58557,A-219-TVR-TVR-037-04,Pag-Asa (Pob.),Home,0,,,2026-01-08 17:09:34,2026-01-09 04:25:28,,,,Normal,0,LMHub_Received,,0,,Marketplace,54,54,0,/,0,Non-Bulky,Pending,,NON-COD,Talavera Hub,1515367103,COMMON,T-06-PAGSA.1,Pag Asa 1,Talavera Hub,,Bulacan Hub,NO,,,,,Normal,N,Non-DG,,12,3,Non-Cache Booking
PH267373322652Z,PH267373322652Z,260107E52GA89R,120.903741,15.607017,A-219-TVR-bsc-SDO-020-04,San Fabian,Home,0,,,2026-01-08 21:38:30,2026-01-09 04:12:39,,,,Normal,0,LMHub_Received,,256,,Marketplace,45.43,45.4336,0,/,0,Non-Bulky,Pending,,COD,Talavera Hub,709586154,COMMON,S-03-ADOCO.2,SanFrancisco / San Fabian,Talavera Hub,,DOP-DTS - DARI Trucking,YES,,,,,Normal,N,Non-DG,,3142,1.7,Non-Cache Booking
PH2699998900258,PH2699998900258,260108FPS00BKJ,120.861101,15.644667,A-219-TVR-SDO-024-04,Santo Rosario,Home,0,,,2026-01-08 16:30:58,2026-01-09 04:09:07,,,,Normal,0,LMHub_Received,,232,,Marketplace,55.3,55.2992,0,/,0,Non-Bulky,Pending,,COD,Talavera Hub,455773979,COMMON,S-04-STORO.2,"Comitang / Sto Rosario 4,5,6-01-02",Talavera Hub,,FM DTS Cluster 6,NO,,,,,Normal,N,Non-DG,,1016,3,Non-Cache Booking
PH269601966978D,PH269601966978D,260108FPHKE7AU,120.928707,15.600536,A-219-TVR-TVR-009-04,Bantug Hacienda,Home,0,,,2026-01-08 16:12:20,2026-01-09 04:23:38,,,,Normal,0,LMHub_Received,,0,,Marketplace,42,42,0,/,0,Non-Bulky,Pending,,NON-COD,Talavera Hub,1023896425,COMMON,T-17-COLMA-.2,Bantug Hacienda / Collado / Mabuhay / Cabubulaunan-02,Talavera Hub,,FM DTS Cluster 3,NO,,,,,Normal,N,Non-DG,,13,0.35,Non-Cache Booking
PH261128733298H,PH261128733298H,260108F7UBDCM1,120.933343,15.591731,A-219-TVR-TVR-051-04,Tabacao,,0,,,2026-01-08 23:01:26,2026-01-09 04:35:37,,,,Normal,0,LMHub_Received,,155,,Marketplace,42.87,42.868,0,/,0,Non-Bulky,Pending,,COD,Talavera Hub,1283394104,COMMON,T-14-TASIC.2,Tabacao 2,Talavera Hub,,DOP-DTS - MALLESONS PLASTIC- Guiguinto,YES,,,,,Normal,N,Non-DG,,3414,0.5,Non-Cache Booking
PH263841709556Y,PH263841709556Y,260107E4QEGHD4,120.858505,15.609015,A-219-TVR-SDO-023-04,Santa Rita,Home,0,,,2026-01-08 18:21:11,2026-01-09 04:16:16,,,,Normal,0,LMHub_Received,,93,,Marketplace,42.52,42.5208,0,/,0,Non-Bulky,Pending,,COD,Talavera Hub,1589858922,COMMON,S-01-MATOC.3,Santa Rita,Talavera Hub,,Drop off Sellers,YES,,,,,Normal,N,Non-DG,,12,0.268,Non-Cache Booking
PH263740452640T,PH263740452640T,260108FB97PAX7,120.88749,15.66212,A-219-TVR-SDO-014-04,Malayantoc,Office,0,,,2026-01-08 19:03:24,2026-01-09 03:13:55,,,,Normal,0,LMHub_Received,,295,,Marketplace,55.65,55.652,0,/,0,Non-Bulky,Pending,,COD,Talavera Hub,497656372,COMMON,S-01-MATOC.1,Mabini/Casulucan,Talavera Hub,,FM DTS Cluster 2,YES,,,,,Normal,N,Non-DG,,17,2.25,Non-Cache Booking
PH266358655901F,PH266358655901F,260107E78EK2TE,120.917297,15.576,A-219-TVR-TVR-037-04,Pag-Asa (Pob.),Home,0,,,2026-01-08 15:07:11,2026-01-09 03:25:27,,,,Normal,0,LMHub_Received,,730,,Marketplace,46.09,46.088,0,/,0,Non-Bulky,Pending,,COD,Talavera Hub,1557926402,COMMON,T-06-PAGSA.2,Pag Asa 2,Talavera Hub,,Dasa Hub,NO,,,,,Normal,N,Non-DG,,4630,1,Non-Cache Booking
PH261257442851S,PH261257442851S,260108FMCUBHFA,120.889171,15.661777,A-219-TVR-SDO-014-04,Malayantoc,Home,0,,,2026-01-08 22:23:25,2026-01-09 04:00:30,,,,Normal,0,LMHub_Received,,286,,Marketplace,77.6,77.6016,0,/,0,Non-Bulky,Pending,,COD,Talavera Hub,669088819,COMMON,S-01-MATOC.2,Malayantoc,Talavera Hub,,DOP-DTS - MALLESONS PLASTIC- Guiguinto,NO,,,,,Normal,N,Non-DG,,12,4.68,Non-Cache Booking
PH260857044292T,PH260857044292T,260107E754QA36,120.922165,15.596058,A-219-TVR-TVR-001-04,Andal Alino (Pob.),Home,0,,,2026-01-08 19:11:10,2026-01-09 04:10:39,,,,Normal,0,LMHub_Received,,1109,,Marketplace,217.21,217.2104,0,/,0,Bulky,Pending,,COD,Talavera Hub,1355652998,COMMON,T-09-SALOD.2,Andal Alino,Talavera Hub,,DOP-DTS - 3PL Courier,YES,,,,,Normal,N,Non-DG,,1879,13.715,Non-Cache Booking
PH267104637963Z,PH267104637963Z,260108FN01GJJ1,120.928291,15.617432,A-219-TVR-TVR-013-04,Burnay,Home,0,,,2026-01-08 22:26:15,2026-01-09 03:52:14,,,,Normal,0,LMHub_Received,,499,,Marketplace,93.79,93.7944,0,/,0,Non-Bulky,Pending,,COD,Talavera Hub,1638109103,COMMON,T-13-CAVBU.3,Burnay/Valle,Talavera Hub,,DOP-DTS - TF Courier,YES,,,,,Normal,N,Non-DG,,12,5.244,Non-Cache Booking
PH2685475309066,PH2685475309066,260108FK9M4S1N,120.913765,15.607283,A-219-TVR-SDO-021-04,San Francisco,,0,,,2026-01-08 17:31:34,2026-01-09 04:35:27,,,,Normal,0,LMHub_Received,,146,,Marketplace,42.82,42.8176,0,/,0,Non-Bulky,Pending,,COD,Talavera Hub,1067081944,COMMON,S-03-ADOCO.2,SanFrancisco / San Fabian,Talavera Hub,,FM DTS Cluster 6,YES,,,,,Normal,N,Non-DG,,2199,0.448,Non-Cache Booking
PH262326187971C,PH262326187971C,260108FGP5TY5P,120.915913,15.615771,A-219-TVR-TVR-047-04,San Pascual,Home,0,,,2026-01-08 22:50:26,2026-01-09 04:45:05,,,,Normal,0,LMHub_Received,,201,,Marketplace,45.13,45.1256,0,/,0,Non-Bulky,Pending,,COD,Talavera Hub,554184942,COMMON,T-12-PASSI.3,San Pascual 4-01,Talavera Hub,,FM DTS Cluster 7,NO,,,,,Normal,N,Non-DG,,3474,1.019,Non-Cache Booking
PH269676548036C,PH269676548036C,260108FK5R3ANQ,120.88672,15.640993,A-219-TVR-SDO-001-04,Baloc,,0,,,2026-01-08 19:18:41,2026-01-09 03:07:19,,,,Normal,0,LMHub_Received,,511,,Marketplace,228.86,228.8616,0,/,0,Bulky,Pending,,COD,Talavera Hub,84408740,COMMON,S-01-BALOC.3,"Baloc Purok 4,5,6,7(1)",Talavera Hub,,FM DTS Cluster 2,NO,,,,,Normal,N,Non-DG,,4550,14.086,Non-Cache Booking
PH269140169066H,PH269140169066H,260108FKWYG6U4,120.973372,15.704783,A-219-TVR-TVR-012-04,Bulac,Home,0,,,2026-01-08 16:42:47,2026-01-09 04:23:50,,,,Normal,0,LMHub_Received,,408,,Marketplace,44.29,44.2848,0,/,0,Non-Bulky,Pending,,COD,Talavera Hub,311294311,COMMON,T-14-TASIC.6,Bulac,Talavera Hub,,DOP-DTS - LNR Parcel,YES,,,,,Normal,N,Non-DG,,1016,0.12,Non-Cache Booking
PH261205401497J,PH261205401497J,260108FJYV70VN,120.92309,15.636831,A-219-TVR-TVR-050-04,Sicsican Matanda,Home,0,,,2026-01-08 18:42:08,2026-01-09 04:00:43,,,,Normal,0,LMHub_Received,,0,,Marketplace,44,44,0,/,0,Non-Bulky,Pending,,NON-COD,Talavera Hub,371403347,COMMON,T-14-TASIC.1,Tabacao 1-02,Talavera Hub,,DOP-DTS - LNR Parcel,NO,,,,,Normal,N,Non-DG,,1016,1.45,Non-Cache Booking
PH266180599738F,PH266180599738F,260108FKTNKMY0,120.888565,15.660196,A-219-TVR-SDO-014-04,Malayantoc,,0,,,2026-01-08 18:33:48,2026-01-09 03:45:30,,,,Normal,0,LMHub_Received,,0,,Marketplace,121,121,0,/,0,Bulky,Pending,,NON-COD,Talavera Hub,303612062,COMMON,S-01-MATOC.2,Malayantoc,Talavera Hub,,FM DTS Cluster 3,NO,,,,,Normal,N,Non-DG,,4559,7.458,Non-Cache Booking
PH263209316106N,PH263209316106N,260107DTASKMUX,120.914592,15.57753,A-219-TVR-TVR-041-04,Poblacion Sur,Home,0,,,2026-01-08 17:23:17,2026-01-09 03:41:10,,,,Normal,0,LMHub_Received,,112,,Marketplace,44.63,44.6272,0,/,0,Non-Bulky,Pending,,COD,Talavera Hub,1667654818,COMMON,T-04-POSUR.1,Poblacion Sur 1,Talavera Hub,,Malabon Hub,YES,,,,,Normal,N,Non-DG,,2753,2,Non-Cache Booking
PH2616939723948,PH2616939723948,260108FK1ETPQQ,120.91744,15.668198,A-219-TVR-TVR-004-04,Bakal I,Home,0,,,2026-01-08 19:06:42,2026-01-09 03:51:55,,,,Normal,0,LMHub_Received,,647,,Marketplace,124.62,124.6232,0,/,0,Bulky,Pending,,COD,Talavera Hub,693729020,COMMON,T-15-BAKAL.2,Bakal Uno (2),Talavera Hub,,DOP-DTS - Geekdeals,NO,,,,,Normal,N,Non-DG,,1016,7.44,Non-Cache Booking
PH261032242568F,PH261032242568F,260108FJ94JVQ1,120.921294,15.598306,A-219-TVR-S5-bsc-TVR-016-04,Calipahan,Home,0,,,2026-01-08 17:47:53,2026-01-09 03:05:21,,,,Normal,0,LMHub_Received,,0,,Marketplace,226,226,0,/,0,Bulky,Pending,,NON-COD,Talavera Hub,496584740,COMMON,T-10-CALI.1,"Calipahan Purok 1,3A",Talavera Hub,,FM DTS Cluster 7,NO,,,,,Normal,N,Non-DG,,3474,14.5,Non-Cache Booking
PH263054356060A,PH263054356060A,260106BN6P45W4,120.918692,15.617574,A-219-TVR-TVR-030-04,Lomboy,Home,0,,,2026-01-08 15:38:29,2026-01-09 04:04:03,,,,Normal,0,LMHub_Received,,260,,Marketplace,92.46,92.456,0,/,0,Bulky,Pending,,COD,Talavera Hub,199599378,COMMON,T-11-PASLO.3,Lomboy,Talavera Hub,,FM DTS Cluster 2,YES,,,,,Normal,N,Non-DG,,4519,5.2,Non-Cache Booking
PH264078246570S,PH264078246570S,260108FK4NTG6T,120.915196,15.589144,A-219-TVR-TVR-001-04,Andal Alino (Pob.),Home,0,,,2026-01-08 13:47:06,2026-01-09 04:09:52,,,,Normal,0,LMHub_Received,,0,,SPX Express,76,76,0,/,0,Non-Bulky,Pending,,NON-COD,Talavera Hub,1195230934,COMMON,T-09-SALOD.2,Andal Alino,Talavera Hub,,PHB Scommerce,NO,,,,,Normal,N,Non-DG,,2796,4.201,Non-Cache Booking
PH266954491362Z,PH266954491362Z,260108FJBD3STK,120.93571,15.672212,A-219-TVR-TVR-019-04,Casulucan Este,Home,0,,,2026-01-08 18:55:33,2026-01-09 03:45:48,,,,Normal,0,LMHub_Received,,1393,,Marketplace,338.8,338.8008,0,/,0,Bulky,Pending,,COD,Talavera Hub,1231922161,COMMON,T-14-TASIC.3,Casulucan Este,Talavera Hub,,FM DTS Cluster 6,YES,,,,,Normal,N,Non-DG,,3592,21.724,Non-Cache Booking
PH263597306909A,PH263597306909A,260108FJCJ8U1S,120.93571,15.672212,A-219-TVR-TVR-019-04,Casulucan Este,Home,0,,,2026-01-08 18:55:10,2026-01-09 03:59:35,,,,Normal,0,LMHub_Received,,599,,Marketplace,169.35,169.3544,0,/,0,Bulky,Pending,,COD,Talavera Hub,1231922161,COMMON,T-14-TASIC.3,Casulucan Este,Talavera Hub,,FM DTS Cluster 6,YES,,,,,Normal,N,Non-DG,,3592,10.862,Non-Cache Booking
PH266978447232N,PH266978447232N,260107DNBE96NM,120.92094,15.588255,A-219-TVR-TVR-034-04,Marcos District (Pob.),Office,0,,,2026-01-08 16:18:37,2026-01-09 04:09:59,,,,Normal,0,LMHub_Received,,1134,,Marketplace,50.35,50.3504,0,/,0,Non-Bulky,Pending,,COD,Talavera Hub,1355665306,COMMON,T-08-MARMA.1,Matias/Marcos,Talavera Hub,,Camanava Hub,YES,,,,,Normal,N,Non-DG,,11,2,Non-Cache Booking
PH262372366076K,PH262372366076K,260107E0AN9DDG,120.884267,15.580882,A-219-TVR-SDO-010-04,Hulo,,0,,,2026-01-08 15:12:24,2026-01-09 04:35:34,,,,Normal,0,LMHub_Received,,189,,Marketplace,43.06,43.0584,0,/,0,Non-Bulky,Pending,,COD,Talavera Hub,1085637225,COMMON,S-06-POBCA.4,Hulo,Talavera Hub,,Tondo Hub,YES,,,,,Normal,N,Non-DG,,3324,0.3,Non-Cache Booking
PH2673749616084,PH2673749616084,260108FFBTNYR8,120.914398,15.611427,A-219-TVR-TVR-047-04,San Pascual,,0,,,2026-01-08 17:40:07,2026-01-09 04:35:14,,,,Normal,0,LMHub_Received,,128,,Marketplace,44.72,44.7168,0,/,0,Non-Bulky,Pending,,COD,Talavera Hub,1629881371,COMMON,T-11-PASLO.2,San Pascual 3,Talavera Hub,,FM DTS Cluster 7,NO,,,,,Normal,N,Non-DG,,1016,1.286,Non-Cache Booking
PH264894375943Z,PH264894375943Z,260107DWHGURQF,120.878534,15.587753,A-219-TVR-SDO-016-04,Poblacion,Home,0,,,2026-01-08 17:51:00,2026-01-09 03:34:14,,,,Normal,0,LMHub_Received,,432,,Marketplace,93.42,93.4192,0,/,0,Bulky,Pending,,COD,Talavera Hub,291308056,COMMON,S-06-POBCA.2,Poblacion/Cabugao/Malasin 2,Talavera Hub,,FM DTS Cluster 5,YES,,,,,Normal,N,Non-DG,,4948,6,Non-Cache Booking
PH264860488621G,PH264860488621G,260108FCG9XGEB,120.916504,15.615066,A-219-TVR-TVR-030-04,Lomboy,Office,0,,,2026-01-08 16:03:14,2026-01-09 04:12:58,,,,Normal,0,LMHub_Received,,0,,Marketplace,91,91,0,/,0,Non-Bulky,Pending,,NON-COD,Talavera Hub,502074461,COMMON,T-11-PASLO.3,Lomboy,Talavera Hub,,FM DTS Cluster 6,NO,,,,,Normal,N,Non-DG,,3392,5.267,Non-Cache Booking
PH269639376425I,PH269639376425I,260107EBE4SF1N,120.90679,15.622979,A-219-TVR-TVR-047-04,San Pascual,,0,,,2026-01-08 22:28:14,2026-01-09 03:42:01,,,,Normal,0,LMHub_Received,,1207,,Marketplace,292.76,292.7592,0,/,0,Bulky,Pending,,COD,Talavera Hub,492211595,COMMON,T-12-PASSI.2,Bagong Silang,Talavera Hub,,DOP-DTS - MALLESONS PLASTIC- Guiguinto,NO,,,,,Normal,N,Non-DG,,3414,18.154,Non-Cache Booking
PH262687873928O,PH262687873928O,260107E2U0EH6N,120.915913,15.615771,A-219-TVR-TVR-047-04,San Pascual,Home,0,,,2026-01-08 22:54:40,2026-01-09 03:39:00,,,,Normal,0,LMHub_Received,,0,,Marketplace,196,196,0,/,0,Bulky,Pending,,NON-COD,Talavera Hub,365171842,COMMON,T-11-PASLO.2,San Pascual 3,Talavera Hub,,DOP-DTS - MALLESONS PLASTIC- Guiguinto,NO,,,,,Normal,N,Non-DG,,5008,12.343,Non-Cache Booking
PH265870398567L,PH265870398567L,260107E3MDVM26,120.931168,15.642973,A-219-TVR-TVR-051-04,Tabacao,,0,,,2026-01-08 16:56:33,2026-01-09 04:13:02,,,,Normal,0,LMHub_Received,,597,,Marketplace,47.34,47.3432,0,/,0,Non-Bulky,Pending,,COD,Talavera Hub,953770259,COMMON,T-14-TASIC.2,Tabacao 2,Talavera Hub,,DOP-DTS - Jackie Cua AXOD,YES,,,,,Normal,N,Non-DG,,3619,1.698,Non-Cache Booking
PH265205256023P,PH265205256023P,260107E4FEVCSA,120.921205,15.605647,A-219-TVR-S5-bsc-TVR-016-04,Calipahan,Office,0,,,2026-01-08 18:52:12,2026-01-09 03:25:29,,,,Normal,0,LMHub_Received,,2790,,Marketplace,241.62,241.624,0,/,0,Bulky,Pending,,COD,Talavera Hub,938668990,COMMON,T-10-CALI.1,"Calipahan Purok 1,3A",Talavera Hub,,Camanava Hub,YES,,,,,Normal,N,Non-DG,,3394,14.006,Non-Cache Booking
PH269715980659X,PH269715980659X,260108EX5CA9U5,120.85994,15.64664,A-219-TVR-SDO-024-04,Santo Rosario,Home,0,,,2026-01-08 17:36:51,2026-01-09 04:46:38,,,,Normal,0,LMHub_Received,,131,,Marketplace,42.73,42.7336,0,/,0,Non-Bulky,Pending,,COD,Talavera Hub,737526405,COMMON,S-04-STORO.1,"Sto Rosario 1,2,3,7",Talavera Hub,,DOP-DTS - Kenlei Electronics,YES,,,,,Normal,N,Non-DG,,1823,0.1,Non-Cache Booking
PH265514455528U,PH265514455528U,260108ES8XCXYH,120.91819,15.576638,A-219-TVR-TVR-041-04,Poblacion Sur,Home,0,,,2026-01-08 18:50:30,2026-01-09 03:37:58,,,,Normal,0,LMHub_Received,,0,,Marketplace,331,331,0,/,0,Bulky,Pending,,NON-COD,Talavera Hub,241101403,COMMON,T-04-POSUR.1,Poblacion Sur 1,Talavera Hub,,FM DTS Cluster 3,NO,,,,,Normal,N,Non-DG,,4951,21.2,Non-Cache Booking
PH2649171312930,PH2649171312930,260108FC9333S5,120.975128,15.671772,A-219-TVR-TVR-039-04,Pantoc Bulac,,0,,,2026-01-08 22:15:55,2026-01-09 04:29:08,,,,Normal,0,LMHub_Received,,135,,Marketplace,42.76,42.756,0,/,0,Non-Bulky,Pending,,COD,Talavera Hub,981305948,COMMON,T-14-TASIC.5,Tagaytay,Talavera Hub,,DOP-DTS - MALLESONS PLASTIC- Guiguinto,YES,,,,,Normal,N,Non-DG,,12,0.25,Non-Cache Booking
PH2673659221706,PH2673659221706,260108FB7M6526,120.8847,15.641589,A-219-TVR-SDO-001-04,Baloc,Home,0,,,2026-01-08 17:37:58,2026-01-08 17:37:58,,,,Normal,0,LMHub_Received,,213,,Marketplace,56.19,56.1928,0,/,0,Non-Bulky,Pending,,COD,Talavera Hub,399022387,COMMON,S-01-BALOC.3,"Baloc Purok 4,5,6,7(1)",Talavera Hub,,Talavera Hub,YES,,,,,Normal,N,Non-DG,,1798,0.3,Non-Cache Booking
PH264829799136D,PH264829799136D,260108F9P42PKA,120.85994,15.64664,A-219-TVR-SDO-024-04,Santo Rosario,,0,,,2026-01-08 17:33:34,2026-01-08 17:33:34,,,,Normal,0,LMHub_Received,,380,,Marketplace,57.13,57.128,0,/,0,Non-Bulky,Pending,,COD,Talavera Hub,399022387,COMMON,S-04-STORO.3,Gen Luna,Talavera Hub,,Talavera Hub,YES,,,,,Normal,N,Non-DG,,1798,1.171,Non-Cache Booking
PH268883317747Q,PH268883317747Q,260107EA56EH0N,120.919631,15.567907,A-219-TVR-TVR-029-04,La Torre,Home,0,,,2026-01-08 15:28:09,2026-01-09 03:40:30,,,,Normal,0,LMHub_Received,,0,,Marketplace,76,76,0,/,0,Bulky,Pending,,NON-COD,Talavera Hub,564325792,COMMON,T-03-DILAT.2,"La Torre Purok 3,4",Talavera Hub,,FM DTS Cluster 2,NO,,,,,Normal,N,Non-DG,,1634,4.32,Non-Cache Booking
PH268681579662O,PH268681579662O,260107DPC4D8SU,120.92379,15.634885,A-219-TVR-TVR-050-04,Sicsican Matanda,Home,0,,,2026-01-08 19:08:05,2026-01-09 03:48:04,,,,Normal,0,LMHub_Received,,810,,Marketplace,230.54,230.536,0,/,0,Bulky,Pending,,COD,Talavera Hub,1461578015,COMMON,T-14-TASIC.1,Tabacao 1-02,Talavera Hub,,FM DTS Cluster 7,YES,,,,,Normal,N,Non-DG,,12,15,Non-Cache Booking
PH269924250625T,PH269924250625T,260108FCFPU98F,120.914474,15.572954,A-219-TVR-TVR-041-04,Poblacion Sur,Office,0,,,2026-01-08 15:52:55,2026-01-08 23:03:03,,,,Normal,0,LMHub_Received,,0,,Marketplace,44,44,0,/,0,Non-Bulky,Pending,,NON-COD,Talavera Hub,1426788612,COMMON,T-05-KIKAY.2,Maestrang Kikay 2,Talavera Hub,,FM DTS Cluster 7,NO,,,,,Normal,N,Non-DG,,12,1.6,Non-Cache Booking
PH2661805125042,PH2661805125042,260107E303G1QX,120.939876,15.598211,A-219-TVR-TVR-025-04,Gulod,,0,,,2026-01-08 16:19:11,2026-01-09 03:37:49,,,,Normal,0,LMHub_Received,,145,,Marketplace,54.81,54.812,0,/,0,Non-Bulky,Pending,,COD,Talavera Hub,1197302022,COMMON,T-09-SALOD.4,Gulod,Talavera Hub,,FM DTS Cluster 7,NO,,,,,Normal,N,Non-DG,,1873,3,Non-Cache Booking
PH2641288834422,PH2641288834422,260108FFX8XA5E,120.853172,15.66725,A-219-TVR-SDO-024-04,Santo Rosario,Home,0,,,2026-01-08 17:40:40,2026-01-09 03:15:15,,,,Normal,0,LMHub_Received,,231,,Marketplace,45.29,45.2936,0,/,0,Non-Bulky,Pending,,COD,Talavera Hub,1081175107,COMMON,,,Talavera Hub,,Drop off Sellers,YES,,,,,Normal,N,Non-DG,,3474,1.975,Non-Cache Booking
PH261551852070S,PH261551852070S,260108FC5HN0AC,120.91735,15.669037,A-219-TVR-TVR-004-04,Bakal I,Home,0,,,2026-01-08 15:42:38,2026-01-09 04:00:54,,,,Normal,0,LMHub_Received,,0,,Marketplace,226,226,0,/,0,Non-Bulky,Pending,,NON-COD,Talavera Hub,326136687,COMMON,T-15-BAKAL.2,Bakal Uno (2),Talavera Hub,,FM DTS Cluster 2,NO,,,,,Normal,N,Non-DG,,4550,14.915,Non-Cache Booking
PH261926562215H,PH261926562215H,260107E8VR7P30,120.934564,15.653309,A-219-TVR-TVR-051-04,Tabacao,Home,0,,,2026-01-08 22:30:10,2026-01-09 03:44:27,,,,Normal,0,LMHub_Received,,1342,,Marketplace,113.52,113.51520000000001,0,/,0,Bulky,Pending,,COD,Talavera Hub,330250330,COMMON,T-14-TASIC.4,Basang Hamog / Pantoc Bulac,Talavera Hub,,DOP-DTS - MALLESONS PLASTIC- Guiguinto,NO,,,,,Normal,N,Non-DG,,3414,7,Non-Cache Booking
PH2667324462539,PH2667324462539,260107EB44BT6V,120.885461,15.643176,A-219-TVR-SDO-001-04,Baloc,Home,0,,,2026-01-08 17:52:29,2026-01-09 03:56:27,,,,Normal,0,LMHub_Received,,0,,Marketplace,76,76,0,/,0,Bulky,Pending,,NON-COD,Talavera Hub,1259039523,COMMON,S-01-BALOC.4,"Baloc Purok 4,5,6,7 (2)",Talavera Hub,,FM DTS Cluster 7,NO,,,,,Normal,N,Non-DG,,1104,4.998,Non-Cache Booking
PH2682793274560,PH2682793274560,260107EG1A1AQ2,120.946591,15.560417,A-219-TVR-TVR-007-04,Baluga,Home,0,,,2026-01-08 15:32:23,2026-01-09 03:56:23,,,,Normal,0,LMHub_Received,,250,,Marketplace,55.4,55.4,0,/,0,Non-Bulky,Pending,,COD,Talavera Hub,83513380,COMMON,T-01-PABAH.3,Baluga,Talavera Hub,,FM DTS Cluster 2,YES,,,,,Normal,N,Non-DG,,2180,2.498,Non-Cache Booking
PH264100574308Z,PH264100574308Z,260108FEV60H18,120.91583,15.587223,A-219-TVR-TVR-037-04,Pag-Asa (Pob.),Home,0,,,2026-01-08 17:22:52,2026-01-08 22:21:54,,,,Normal,0,LMHub_Received,,0,,Marketplace,76,76,0,/,0,Bulky,Pending,,NON-COD,Talavera Hub,922204092,COMMON,T-06-PAGSA.2,Pag Asa 2,Talavera Hub,,FM DTS Cluster 7,NO,,,,,Normal,N,Non-DG,,1873,4.03,Non-Cache Booking
PH265033530965D,PH265033530965D,260107D5RX5X1P,120.93026,15.626585,A-219-TVR-TVR-017-04,Campos,Home,0,,,2026-01-08 17:04:44,2026-01-09 04:11:26,,,,Normal,0,LMHub_Received,,179,,Marketplace,55,55.0024,0,/,0,Non-Bulky,Pending,,COD,Talavera Hub,1254409727,COMMON,T-13-CAVBU.1,Campos/Burnay (1),Talavera Hub,,FM DTS Cluster 1,NO,,,,,Normal,N,Non-DG,,2331,2.4,Non-Cache Booking
PH2625147171747,PH2625147171747,260107DX8E7V39,120.9168,15.5873,A-219-TVR-TVR-037-04,Pag-Asa (Pob.),Home,0,,,2026-01-08 23:35:47,2026-01-09 03:28:22,,,,Normal,0,LMHub_Received,,0,,Marketplace,151,151,0,/,0,Non-Bulky,Pending,,NON-COD,Talavera Hub,584255260,COMMON,T-06-PAGSA.2,Pag Asa 2,Talavera Hub,,DOP-DTS - MALLESONS PLASTIC- Guiguinto,NO,,,,,Normal,N,Non-DG,,12,9.286,Non-Cache Booking
PH268941694489T,PH268941694489T,260108F6DW4009,120.93117,15.642973,A-219-TVR-TVR-051-04,Tabacao,Home,0,,,2026-01-08 19:40:13,2026-01-09 03:57:17,,,,Normal,0,LMHub_Received,,300,,Marketplace,55.68,55.68,0,/,0,Non-Bulky,Pending,,COD,Talavera Hub,1524934239,COMMON,T-14-TASIC.2,Tabacao 2,Talavera Hub,,FM DTS Cluster 7,NO,,,,,Normal,N,Non-DG,,520,2.163,Non-Cache Booking
PH264770765354V,PH264770765354V,260108EQC4WC03,120.93282,15.544348,A-219-TVR-TVR-046-04,San Miguel Na Munti,Home,0,,,2026-01-08 22:19:26,2026-01-09 03:48:41,,,,Normal,0,LMHub_Received,,0,,Marketplace,54,54,0,/,0,Non-Bulky,Pending,,NON-COD,Talavera Hub,1571602308,COMMON,T-02-PIMUN.4,San Miguel upper,Talavera Hub,,DOP-DTS - ZNH Online Shop,NO,,,,,Normal,N,Non-DG,,12,2.32,Non-Cache Booking
PH263680792260C,PH263680792260C,260107E0RRESCY,120.918634,15.568303,A-219-TVR-TVR-029-04,La Torre,Home,0,,,2026-01-08 17:52:37,2026-01-09 04:10:15,,,,Normal,0,LMHub_Received,,0,,Marketplace,54,54,0,/,0,Non-Bulky,Pending,,NON-COD,Talavera Hub,311543170,COMMON,T-03-DILAT.2,"La Torre Purok 3,4",Talavera Hub,,FM DTS Cluster 6,NO,,,,,Normal,N,Non-DG,,3392,2.286,Non-Cache Booking
PH263235196200Y,PH263235196200Y,260107EDGHJN6G,120.908739,15.592102,A-219-TVR-bsc-SDO-020-04,San Fabian,Home,0,,,2026-01-08 17:01:22,2026-01-08 22:24:40,,,,Normal,0,LMHub_Received,,2189,,Marketplace,373.26,373.2584,0,/,0,Bulky,Pending,,COD,Talavera Hub,521916684,COMMON,S-03-ADOCO.2,SanFrancisco / San Fabian,Talavera Hub,,FM DTS Cluster 7,YES,,,,,Normal,N,Non-DG,,1873,23.85,Non-Cache Booking
PH2633931912957,PH2633931912957,260108EKT293CT,120.92302,15.601359,A-219-TVR-S5-bsc-TVR-016-04,Calipahan,Home,0,,,2026-01-08 16:20:50,2026-01-09 03:07:11,,,,Normal,0,LMHub_Received,,0,,Marketplace,166,166,0,/,0,Bulky,Pending,,NON-COD,Talavera Hub,170333410,COMMON,T-10-CALI.2,"Calipahan Purok 1,3B",Talavera Hub,,FM DTS Cluster 5,NO,,,,,Normal,N,Non-DG,,4686,10.6,Non-Cache Booking
PH2687027297496,PH2687027297496,260107E4JKXFHT,120.878534,15.587753,A-219-TVR-SDO-016-04,Poblacion,Home,0,,,2026-01-08 16:26:32,2026-01-09 04:11:49,,,,Normal,0,LMHub_Received,,690,,Marketplace,139.86,139.864,0,/,0,Bulky,Pending,,COD,Talavera Hub,1219271398,COMMON,S-06-POBCA.2,Poblacion/Cabugao/Malasin 2,Talavera Hub,,DOP-DTS - K.Summit,YES,,,,,Normal,N,Non-DG,,520,8.143,Non-Cache Booking
PH268162649954G,PH268162649954G,260108FEC03T3P,120.912865,15.583001,A-219-TVR-TVR-037-04,Pag-Asa (Pob.),Home,0,,,2026-01-08 12:38:14,2026-01-09 03:50:04,,,,Normal,0,LMHub_Received,,1065,,SPX Express,81.96,81.964,0,/,0,Non-Bulky,Pending,,COD,Talavera Hub,976604286,COMMON,T-06-PAGSA.1,Pag Asa 1,Talavera Hub,,PHB Scommerce,YES,,,,,Normal,N,Non-DG,,2796,4.08,Non-Cache Booking
PH267757643929Z,PH267757643929Z,260107DNUXJG58,120.9129,15.585138,A-219-TVR-TVR-037-04,Pag-Asa (Pob.),Home,0,,,2026-01-08 14:17:30,2026-01-09 04:04:14,,,,Normal,0,LMHub_Received,,625,,Marketplace,94.5,94.5,0,/,0,Bulky,Pending,,COD,Talavera Hub,12480758,COMMON,T-06-PAGSA.1,Pag Asa 1,Talavera Hub,,Coloong Hub,YES,,,,,Normal,N,Non-DG,,3394,5.4,Non-Cache Booking
PH2649556371208,PH2649556371208,260107DYC8J0KA,120.884346,15.612841,A-219-TVR-SDO-018-04,Sagaba,Home,0,,,2026-01-08 15:46:30,2026-01-09 04:10:11,,,,Normal,0,LMHub_Received,,1599,,Marketplace,62.95,62.9544,0,/,0,Non-Bulky,Pending,,COD,Talavera Hub,1542040269,COMMON,S-05-SABUR.2,Burgos,Talavera Hub,,DOP-DTS - Burlington Industries,YES,,,,,Normal,N,Non-DG,,4664,2.452,Non-Cache Booking
PH2610166264012,PH2610166264012,260107E3BDXDPU,120.922,15.58631,A-219-TVR-TVR-034-04,Marcos District (Pob.),Office,0,,,2026-01-08 17:38:06,2026-01-09 04:25:10,,,,Normal,0,LMHub_Received,,529,,Marketplace,68.96,68.9624,0,/,0,Non-Bulky,Pending,,COD,Talavera Hub,897219660,COMMON,T-08-MARMA.1,Matias/Marcos,Talavera Hub,,FM DTS Cluster 5,YES,,,,,Normal,N,Non-DG,,3324,3.429,Non-Cache Booking
PH264615843127D,PH264615843127D,260107E1ARDSC1,120.918301,15.620332,A-219-TVR-TVR-030-04,Lomboy,Office,0,,,2026-01-08 18:14:57,2026-01-09 03:25:47,,,,Normal,0,LMHub_Received,,2312,,Marketplace,103.95,103.9472,0,/,0,Bulky,Pending,,COD,Talavera Hub,720797811,COMMON,T-11-PASLO.3,Lomboy,Talavera Hub,,Drop off Sellers,YES,,,,,Normal,N,Non-DG,,1879,6,Non-Cache Booking
PH2632191610573,PH2632191610573,260107E25DYNY7,120.927108,15.554595,A-219-TVR-TVR-023-04,Dinarayat,Home,0,,,2026-01-08 17:37:57,2026-01-09 04:09:29,,,,Normal,0,LMHub_Received,,0,,Marketplace,76,76,0,/,0,Non-Bulky,Pending,,NON-COD,Talavera Hub,564374859,COMMON,T-03-DILAT.1,La Torre/ Dinarayat,Talavera Hub,,FM DTS Cluster 6,NO,,,,,Normal,N,Non-DG,,3394,4.115,Non-Cache Booking
PH262093517867F,PH262093517867F,260107EECG3C3T,120.881473,15.568933,A-219-TVR-SDO-013-04,Malaya (Pook Malaya),Home,0,,,2026-01-08 19:30:26,2026-01-09 04:10:51,,,,Normal,0,LMHub_Received,,0,,Marketplace,91,91,0,/,0,Non-Bulky,Pending,,NON-COD,Talavera Hub,1228116503,COMMON,S-06-POBCA.3,Poblacion/Cabugao/Malasin,Talavera Hub,,Drop off Sellers,NO,,,,,Normal,N,Non-DG,,1873,5.751,Non-Cache Booking
PH269190902131C,PH269190902131C,260108FD290VXW,120.90802,15.632237,A-219-TVR-TVR-047-04,San Pascual,,0,,,2026-01-08 19:22:14,2026-01-09 04:10:25,,,,Normal,0,LMHub_Received,,685,,Marketplace,94.84,94.836,0,/,0,Non-Bulky,Pending,,COD,Talavera Hub,569283777,COMMON,T-12-PASSI.1,San Pascual Tal 1,Talavera Hub,,DOP-DTS - 3PL Courier,YES,,,,,Normal,N,Non-DG,,1879,5.639,Non-Cache Booking
PH2640755142863,PH2640755142863,260107DWXNFM4C,120.952103,15.655766,A-219-TVR-TVR-010-04,Bantug Hamog (Basang Hamog),Home,0,,,2026-01-08 17:34:02,2026-01-09 04:10:05,,,,Normal,0,LMHub_Received,,863,,Marketplace,95.83,95.8328,0,/,0,Non-Bulky,Pending,,COD,Talavera Hub,1377007880,COMMON,T-14-TASIC.4,Basang Hamog / Pantoc Bulac,Talavera Hub,,FM DTS Cluster 6,YES,,,,,Normal,N,Non-DG,,3394,5.212,Non-Cache Booking
PH263092344249K,PH263092344249K,260108EYYUC2UF,120.915913,15.626206,A-219-TVR-TVR-030-04,Lomboy,Home,0,,,2026-01-08 16:49:51,2026-01-09 03:05:10,,,,Normal,0,LMHub_Received,,1314,,Marketplace,173.36,173.3584,0,/,0,Non-Bulky,Pending,,COD,Talavera Hub,577178686,COMMON,T-11-PASLO.3,Lomboy,Talavera Hub,,MFM South,NO,,,,,Normal,N,Non-DG,,3127,10.494,Non-Cache Booking
PH264552683418L,PH264552683418L,260107E6440U8C,120.902999,15.705205,A-219-TVR-TVR-006-04,Bakal Iii,Home,0,,,2026-01-08 18:25:39,2026-01-09 03:07:41,,,,Normal,0,LMHub_Received,,4230,,Marketplace,144.69,144.688,0,/,0,Bulky,Pending,,COD,Talavera Hub,1519645065,COMMON,T-16-BAKMA.1,Bakal Tres (1),Talavera Hub,,Santa Maria-Mahabang Parang Hub,NO,,,,,Normal,N,Non-DG,,1823,7.292,Non-Cache Booking
PH2623076609616,PH2623076609616,260107DV06KC5A,120.877706,15.600008,A-219-TVR-SDO-018-04,Sagaba,Home,0,,,2026-01-08 20:27:19,2026-01-09 04:47:35,,,,Normal,0,LMHub_Received,,168,,Marketplace,42.94,42.9408,0,/,0,Non-Bulky,Pending,,COD,Talavera Hub,922204092,COMMON,S-05-SABUR.1,Sagaba,Talavera Hub,,FM DTS Cluster 7,YES,,,,,Normal,N,Non-DG,,1873,0.58,Non-Cache Booking
PH263667713947D,PH263667713947D,260108F6B3DRFJ,120.917674,15.585153,A-219-TVR-TVR-037-04,Pag-Asa (Pob.),,0,,,2026-01-08 19:09:54,2026-01-09 04:00:58,,,,Normal,0,LMHub_Received,,699,,Marketplace,57.91,57.9144,0,/,0,Non-Bulky,Pending,,COD,Talavera Hub,1392380954,COMMON,T-06-PAGSA.1,Pag Asa 1,Talavera Hub,,FM DTS Cluster 7,YES,,,,,Normal,N,Non-DG,,520,2.358,Non-Cache Booking
PH2623475167118,PH2623475167118,260108FDM29SDF,120.87673,15.583462,A-219-TVR-SDO-004-04,Cabugao,Home,0,,,2026-01-08 15:22:47,2026-01-09 03:10:21,,,,Normal,0,LMHub_Received,,313,,Marketplace,77.75,77.7528,0,/,0,Bulky,Pending,,COD,Talavera Hub,1598588789,COMMON,S-06-POBCA.2,Poblacion/Cabugao/Malasin 2,Talavera Hub,,FM DTS Cluster 6,YES,,,,,Normal,N,Non-DG,,3392,4.5,Non-Cache Booking
PH267172389985W,PH267172389985W,260107EBQ5RE9W,120.881653,15.60962,A-219-TVR-SDO-018-04,Sagaba,Home,0,,,2026-01-08 17:02:29,2026-01-09 04:11:10,,,,Normal,0,LMHub_Received,,0,,Marketplace,44,44,0,/,0,Non-Bulky,Pending,,NON-COD,Talavera Hub,64136392,COMMON,S-05-SABUR.2,Burgos,Talavera Hub,,FM DTS Cluster 5,NO,,,,,Normal,N,Non-DG,,1707,1.1,Non-Cache Booking
PH266162699035G,PH266162699035G,260108FBYQMWV6,120.925957,15.558139,A-219-TVR-TVR-023-04,Dinarayat,,0,,,2026-01-08 13:42:32,2026-01-09 04:13:10,,,,Normal,0,LMHub_Received,,0,,Marketplace,91,91,0,/,0,Bulky,Pending,,NON-COD,Talavera Hub,84408740,COMMON,T-03-DILAT.1,La Torre/ Dinarayat,Talavera Hub,,FM DTS Cluster 2,NO,,,,,Normal,N,Non-DG,,4550,5.92,Non-Cache Booking
PH260603511195F,PH260603511195F,260108FDCSJS5M,120.890686,15.640609,A-219-TVR-SDO-001-04,Baloc,Office,0,,,2026-01-08 17:40:20,2026-01-09 04:09:33,,,,Normal,0,LMHub_Received,,201,,Marketplace,45.13,45.1256,0,/,0,Non-Bulky,Pending,,COD,Talavera Hub,1049940483,COMMON,S-01-BALOC.1,"Baloc Purok 1, 2, 8",Talavera Hub,,DOP-DTS - Kenlei Electronics,YES,,,,,Normal,N,Non-DG,,3474,1.344,Non-Cache Booking
PH266925518220F,PH266925518220F,260107E1FF3U2A,120.93324,15.555905,A-219-TVR-TVR-007-04,Baluga,Home,0,,,2026-01-08 19:38:03,2026-01-08 19:38:03,,,,Normal,0,LMHub_Received,,219,,Marketplace,56.23,56.2264,0,/,0,Non-Bulky,Pending,,COD,Talavera Hub,1307963630,COMMON,T-01-PABAH.3,Baluga,Talavera Hub,,Talavera Hub,YES,,,,,Normal,N,Non-DG,,1798,0.17,Non-Cache Booking
PH2629319047309,PH2629319047309,260108FD6GCQW7,120.85994,15.64664,A-219-TVR-SDO-024-04,Santo Rosario,Home,0,,,2026-01-08 16:40:26,2026-01-09 03:36:50,,,,Normal,0,LMHub_Received,,0,,Marketplace,66,66,0,/,0,Non-Bulky,Pending,,NON-COD,Talavera Hub,490156904,COMMON,S-04-STORO.1,"Sto Rosario 1,2,3,7",Talavera Hub,,Drop off Sellers,NO,,,,,Normal,N,Non-DG,,12,3.75,Non-Cache Booking
PH267730774777Z,PH267730774777Z,260107DV7PW609,120.887214,15.641101,A-219-TVR-SDO-001-04,Baloc,Home,0,,,2026-01-08 16:56:23,2026-01-09 03:41:27,,,,Normal,0,LMHub_Received,,545,,Marketplace,69.05,69.052,0,/,0,Non-Bulky,Pending,,COD,Talavera Hub,134350609,COMMON,S-01-BALOC.3,"Baloc Purok 4,5,6,7(1)",Talavera Hub,,FM DTS Cluster 5,NO,,,,,Normal,N,Non-DG,,1707,3.06,Non-Cache Booking
PH265978974459L,PH265978974459L,260106BP8T34S1,120.902999,15.705205,A-219-TVR-TVR-006-04,Bakal Iii,Home,0,,,2026-01-08 22:51:53,2026-01-09 04:35:24,,,,Normal,0,LMHub_Received,,185,,Marketplace,55.04,55.036,0,/,0,Non-Bulky,Pending,,COD,Talavera Hub,1657284775,COMMON,"T-16-BAKMA,2",Bakal Tres (2),Talavera Hub,,FM DTS Cluster 7,NO,,,,,Normal,N,Non-DG,,12,2.1,Non-Cache Booking
PH263309177456N,PH263309177456N,260107E6HPVHM9,120.901564,15.646701,A-219-TVR-SDO-001-04,Baloc,Home,0,,,2026-01-08 16:56:14,2026-01-09 04:11:05,,,,Normal,0,LMHub_Received,,109,,Marketplace,42.61,42.6104,0,/,0,Non-Bulky,Pending,,COD,Talavera Hub,1155083610,COMMON,S-01-BALOC.1,"Baloc Purok 1, 2, 8",Talavera Hub,,FM DTS Cluster 5,YES,,,,,Normal,N,Non-DG,,1707,1,Non-Cache Booking
PH263764711126O,PH263764711126O,260107EG5VVRQ9,120.884484,15.577612,A-219-TVR-SDO-010-04,Hulo,,0,,,2026-01-08 16:00:17,2026-01-09 03:55:50,,,,Normal,0,LMHub_Received,,0,,Marketplace,106,106,0,/,0,Bulky,Pending,,NON-COD,Talavera Hub,485451573,COMMON,S-06-POBCA.4,Hulo,Talavera Hub,,FM DTS Cluster 5,NO,,,,,Normal,N,Non-DG,,2331,6.858,Non-Cache Booking
PH261679911493D,PH261679911493D,260107E4WXCW1S,120.91742,15.586007,A-219-TVR-TVR-041-04,Poblacion Sur,Home,0,,,2026-01-08 19:17:05,2026-01-09 04:09:44,,,,Normal,0,LMHub_Received,,222,,Marketplace,92.24,92.2432,0,/,0,Non-Bulky,Pending,,COD,Talavera Hub,1026981315,COMMON,T-04-POSUR.1,Poblacion Sur 1,Talavera Hub,,FM DTS Cluster 6,NO,,,,,Normal,N,Non-DG,,11,5.486,Non-Cache Booking
PH262740697239N,PH262740697239N,260107E2B8X8BU,120.92309,15.605527,A-219-TVR-S5-bsc-TVR-016-04,Calipahan,Home,0,,,2026-01-08 13:38:12,2026-01-09 04:28:11,,,,Normal,0,LMHub_Received,,0,,Marketplace,44,44,0,/,0,Non-Bulky,Pending,,NON-COD,Talavera Hub,149174871,COMMON,T-10-CALI.3,"Calipahan Purok 2,5",Talavera Hub,,FM DTS Cluster 2,NO,,,,,Normal,N,Non-DG,,2349,1.749,Non-Cache Booking
PH2631828907170,PH2631828907170,260108FAWTDS25,120.928314,15.552298,A-219-TVR-TVR-040-04,Pinagpanaan,Home,0,,,2026-01-08 21:42:23,2026-01-09 04:11:54,,,,Normal,0,LMHub_Received,,436,,Marketplace,303.44,303.4416,0,/,0,Bulky,Pending,,COD,Talavera Hub,549183604,COMMON,T-02-PIMUN.1,Pinagpanaan Lower,Talavera Hub,,FM DTS Cluster 7,YES,,,,,Normal,N,Non-DG,,1873,20,Non-Cache Booking
PH2622243178028,PH2622243178028,260107DU90KU8Q,120.86291,15.649431,A-219-TVR-SDO-024-04,Santo Rosario,,0,,,2026-01-08 20:27:50,2026-01-09 03:53:43,,,,Normal,0,LMHub_Received,,879,,Marketplace,110.92,110.9224,0,/,0,Non-Bulky,Pending,,COD,Talavera Hub,502074461,COMMON,S-04-STORO.2,"Comitang / Sto Rosario 4,5,6-01-02",Talavera Hub,,FM DTS Cluster 6,NO,,,,,Normal,N,Non-DG,,3392,6.858,Non-Cache Booking
PH263230194713K,PH263230194713K,260107E852477A,120.92596,15.618124,A-219-TVR-TVR-013-04,Burnay,Home,0,,,2026-01-08 16:25:19,2026-01-09 04:11:45,,,,Normal,0,LMHub_Received,,595,,Marketplace,69.33,69.332,0,/,0,Non-Bulky,Pending,,COD,Talavera Hub,446723446,COMMON,T-13-CAVBU.3,Burnay/Valle,Talavera Hub,,FM DTS Cluster 6,YES,,,,,Normal,N,Non-DG,,2199,3.678,Non-Cache Booking
PH2671506980891,PH2671506980891,260107DTESAXM7,120.85858,15.663155,A-219-TVR-SDO-024-04,Santo Rosario,Home,0,,,2026-01-08 16:43:51,2026-01-09 03:57:22,,,,Normal,0,LMHub_Received,,279,,Marketplace,55.56,55.5624,0,/,0,Non-Bulky,Pending,,COD,Talavera Hub,446723446,COMMON,S-04-STORO.1,"Sto Rosario 1,2,3,7",Talavera Hub,,FM DTS Cluster 6,YES,,,,,Normal,N,Non-DG,,2199,2.229,Non-Cache Booking
PH260960167816Q,PH260960167816Q,260108EM174RTK,120.92119,15.604718,A-219-TVR-S5-bsc-TVR-016-04,Calipahan,,0,,,2026-01-08 17:01:42,2026-01-09 03:57:00,,,,Normal,0,LMHub_Received,,392,,Marketplace,56.2,56.1952,0,/,0,Non-Bulky,Pending,,COD,Talavera Hub,1152171568,COMMON,T-10-CALI.4,Calipahan Purok 4,Talavera Hub,,FM DTS Cluster 6,NO,,,,,Normal,N,Non-DG,,2199,2.541,Non-Cache Booking
PH263108606189T,PH263108606189T,260107DGA9Q7QG,120.91955,15.585712,A-219-TVR-TVR-032-04,Maestrang Kikay (Pob.),Office,0,,,2026-01-08 17:28:17,2026-01-09 03:31:26,,,,Normal,0,LMHub_Received,,240,,Marketplace,167.34,167.344,0,/,0,Non-Bulky,Pending,,COD,Talavera Hub,765882019,COMMON,T-06-PAGSA.1,Pag Asa 1,Talavera Hub,,FM DTS Cluster 6,NO,,,,,Normal,N,Non-DG,,11,10.608,Non-Cache Booking
PH260735329722J,PH260735329722J,260107DQ9MKSUQ,120.923088,15.613352,A-219-TVR-TVR-017-04,Campos,,0,,,2026-01-08 21:48:19,2026-01-09 04:04:30,,,,Normal,0,LMHub_Received,,246,,Marketplace,45.38,45.3776,0,/,0,Non-Bulky,Pending,,COD,Talavera Hub,796136847,COMMON,T-13-CAVBU.1,Campos/Burnay (1),Talavera Hub,,Drop off Sellers,YES,,,,,Normal,N,Non-DG,,5008,2,Non-Cache Booking
PH262377198525P,PH262377198525P,260108FAWEYJNE,120.900129,15.593436,A-219-TVR-SDO-008-04,Dolores,Home,0,,,2026-01-08 21:03:29,2026-01-09 04:12:52,,,,Normal,0,LMHub_Received,,58,,Marketplace,42.33,42.3248,0,/,0,Non-Bulky,Pending,,COD,Talavera Hub,531856468,COMMON,S-03-ADOCO.1,San Agustin/Dolores/Concepcion,Talavera Hub,,Drop off Sellers,YES,,,,,Normal,N,Non-DG,,5008,0.015,Non-Cache Booking
PH2678946035956,PH2678946035956,260108F3QK9FH2,120.886414,15.641223,A-219-TVR-SDO-001-04,Baloc,,0,,,2026-01-08 13:53:56,2026-01-09 03:34:03,,,,Normal,0,LMHub_Received,,515,,Marketplace,228.88,228.88400000000001,0,/,0,Bulky,Pending,,COD,Talavera Hub,84408740,COMMON,S-01-BALOC.3,"Baloc Purok 4,5,6,7(1)",Talavera Hub,,FM DTS Cluster 2,NO,,,,,Normal,N,Non-DG,,4550,14.086,Non-Cache Booking
PH266783777914N,PH266783777914N,260107E88KKAT3,120.91735,15.669216,A-219-TVR-SDO-011-04,Mabini,,0,,,2026-01-08 20:47:25,2026-01-09 03:10:06,,,,Normal,0,LMHub_Received,,350,,Marketplace,137.96,137.96,0,/,0,Bulky,Pending,,COD,Talavera Hub,112761936,COMMON,S-01-MATOC.1,Mabini/Casulucan,Talavera Hub,,FM DTS Cluster 6,YES,,,,,Normal,N,Non-DG,,3392,9,Non-Cache Booking
PH269443249875W,PH269443249875W,260107EECHXF27,120.972115,15.682687,A-219-TVR-TVR-012-04,Bulac,Home,0,,,2026-01-08 22:20:20,2026-01-09 04:23:54,,,,Normal,0,LMHub_Received,,0,,Marketplace,42,42,0,/,0,Non-Bulky,Pending,,NON-COD,Talavera Hub,314107841,COMMON,T-14-TASIC.6,Bulac,Talavera Hub,,FM DTS Cluster 7,NO,,,,,Normal,N,Non-DG,,1823,0.5,Non-Cache Booking
PH267635128634D,PH267635128634D,260107E042H3D4,120.921906,15.585132,A-219-TVR-TVR-034-04,Marcos District (Pob.),,0,,,2026-01-08 16:28:32,2026-01-09 04:36:00,,,,Normal,0,LMHub_Received,,107,,Marketplace,42.6,42.5992,0,/,0,Non-Bulky,Pending,,COD,Talavera Hub,295906305,COMMON,T-08-MARMA.2,Marcos 1,Talavera Hub,,FM DTS Cluster 6,NO,,,,,Normal,N,Non-DG,,3392,1,Non-Cache Booking
PH260168493275S,PH260168493275S,260108FBW4P40P,120.91819,15.576638,A-219-TVR-TVR-041-04,Poblacion Sur,Home,0,,,2026-01-08 20:35:11,2026-01-09 03:38:49,,,,Normal,0,LMHub_Received,,289,,Marketplace,55.62,55.6184,0,/,0,Non-Bulky,Pending,,COD,Talavera Hub,727725138,COMMON,T-04-POSUR.1,Poblacion Sur 1,Talavera Hub,,Drop off Sellers,YES,,,,,Normal,N,Non-DG,,3394,2.476,Non-Cache Booking
PH266265345985S,PH266265345985S,260107DNPNS4GD,120.92021,15.566775,A-219-TVR-TVR-029-04,La Torre,Home,0,,,2026-01-08 17:59:11,2026-01-09 03:20:01,,,,Normal,0,LMHub_Received,,385,,Marketplace,46.16,46.156,0,/,0,Non-Bulky,Pending,,COD,Talavera Hub,1486962692,COMMON,T-03-DILAT.2,"La Torre Purok 3,4",Talavera Hub,,Drop off Sellers,YES,,,,,Normal,N,Non-DG,,1879,1.3,Non-Cache Booking
PH268164603684Z,PH268164603684Z,260108F3P1PQQ1,120.886414,15.641223,A-219-TVR-SDO-001-04,Baloc,,0,,,2026-01-08 12:54:42,2026-01-09 03:41:01,,,,Normal,0,LMHub_Received,,511,,Marketplace,228.86,228.8616,0,/,0,Bulky,Pending,,COD,Talavera Hub,84408740,COMMON,S-01-BALOC.3,"Baloc Purok 4,5,6,7(1)",Talavera Hub,,FM DTS Cluster 2,NO,,,,,Normal,N,Non-DG,,4550,14.086,Non-Cache Booking
PH262028537335S,PH262028537335S,260108EUNBMA4V,120.934563,15.548985,A-219-TVR-TVR-040-04,Pinagpanaan,,0,,,2026-01-08 22:49:26,2026-01-09 04:28:27,,,,Normal,0,LMHub_Received,,56,,Marketplace,42.31,42.3136,0,/,0,Non-Bulky,Pending,,COD,Talavera Hub,564960665,COMMON,T-02-PIMUN.1,Pinagpanaan Lower,Talavera Hub,,FM DTS Cluster 7,YES,,,,,Normal,N,Non-DG,,2200,0.215,Non-Cache Booking
PH267454433435B,PH267454433435B,260107E18GX998,120.902756,15.628466,A-219-TVR-TVR-003-04,Bagong Silang,Home,0,,,2026-01-08 17:03:40,2026-01-09 04:04:35,,,,Normal,0,LMHub_Received,,484,,Marketplace,68.71,68.7104,0,/,0,Non-Bulky,Pending,,COD,Talavera Hub,279491877,COMMON,T-12-PASSI.2,Bagong Silang,Talavera Hub,,FM DTS Cluster 7,NO,,,,,Normal,N,Non-DG,,1016,3.52,Non-Cache Booking
PH263083048992W,PH263083048992W,260107E5T2P1FM,120.87744,15.592092,A-219-TVR-SDO-012-04,Malasin,Home,0,,,2026-01-08 22:30:43,2026-01-09 04:03:40,,,,Normal,0,LMHub_Received,,254,,Marketplace,67.42,67.4224,0,/,0,Non-Bulky,Pending,,COD,Talavera Hub,779739081,COMMON,S-06-POBCA.1,Poblacion/Cabugao/Malasin (1),Talavera Hub,,DOP-DTS - ZNH Online Shop,YES,,,,,Normal,N,Non-DG,,2199,3.219,Non-Cache Booking
PH266391971333Q,PH266391971333Q,260107DVN9S9EW,120.899545,15.699879,A-219-TVR-TVR-005-04,Bakal Ii,Office,0,,,2026-01-08 21:10:56,2026-01-09 03:19:21,,,,Normal,0,LMHub_Received,,728,,Marketplace,80.08,80.0768,0,/,0,Non-Bulky,Pending,,COD,Talavera Hub,1098242482,COMMON,T-15-BAKAL.4,Bakal Dos(2),Talavera Hub,,Drop off Sellers,YES,,,,,Normal,N,Non-DG,,4657,4.243,Non-Cache Booking
PH263210486254O,PH263210486254O,260108F9S6A2A0,120.91533,15.58719,A-219-TVR-TVR-037-04,Pag-Asa (Pob.),Home,0,,,2026-01-08 22:49:52,2026-01-09 04:28:34,,,,Normal,0,LMHub_Received,,99,,Marketplace,42.55,42.5544,0,/,0,Non-Bulky,Pending,,COD,Talavera Hub,1283586771,COMMON,T-06-PAGSA.1,Pag Asa 1,Talavera Hub,,DOP-DTS - DARI Trucking,YES,,,,,Normal,N,Non-DG,,3474,0.223,Non-Cache Booking
PH260402838077B,PH260402838077B,260108EP9QEW2S,120.88192,15.582027,A-219-TVR-SDO-010-04,Hulo,Home,0,,,2026-01-08 16:00:25,2026-01-09 03:39:18,,,,Normal,0,LMHub_Received,,1946,,Marketplace,191.9,191.8976,0,/,0,Bulky,Pending,,COD,Talavera Hub,50106852,COMMON,S-06-POBCA.4,Hulo,Talavera Hub,,FM DTS Cluster 2,YES,,,,,Normal,N,Non-DG,,4905,11.767,Non-Cache Booking
PH2676487119614,PH2676487119614,260107E4CYRXSJ,120.887215,15.641101,A-219-TVR-SDO-001-04,Baloc,Home,0,,,2026-01-08 21:49:48,2026-01-09 04:12:10,,,,Normal,0,LMHub_Received,,223,,Marketplace,55.25,55.2488,0,/,0,Non-Bulky,Pending,,COD,Talavera Hub,481486244,COMMON,S-01-BALOC.1,"Baloc Purok 1, 2, 8",Talavera Hub,,DOP-DTS - MALLESONS PLASTIC- Guiguinto,NO,,,,,Normal,N,Non-DG,,1873,2.589,Non-Cache Booking
PH262522913033B,PH262522913033B,260107E27A1HGJ,120.92173,15.589248,A-219-TVR-TVR-024-04,Esguerra District (Pob.),Home,0,,,2026-01-08 22:42:52,2026-01-09 04:02:45,,,,Normal,0,LMHub_Received,,318,,Marketplace,43.78,43.7808,0,/,0,Non-Bulky,Pending,,COD,Talavera Hub,1319379697,COMMON,T-07-GUERA.2,Esguerra 2,Talavera Hub,,DOP-DTS - Etrustek- Plaridel,YES,,,,,Normal,N,Non-DG,,5008,0.858,Non-Cache Booking
PH267207479900Y,PH267207479900Y,260107DUR6XDYR,120.955889,15.569131,A-219-TVR-TVR-026-04,Homestead I,Home,0,,,2026-01-08 16:56:30,2026-01-09 04:03:16,,,,Normal,0,LMHub_Received,,619,,Marketplace,58.47,58.4664,0,/,0,Non-Bulky,Pending,,COD,Talavera Hub,257210546,COMMON,T-01-PABAH.2,Homestead,Talavera Hub,,San Simon Hub,YES,,,,,Normal,N,Non-DG,,4554,1.8,Non-Cache Booking
PH265464715047N,PH265464715047N,260107E2TAH5YU,120.901348,15.666468,A-219-TVR-SDO-011-04,Mabini,Home,0,,,2026-01-08 16:42:52,2026-01-09 03:26:47,,,,Normal,0,LMHub_Received,,479,,Marketplace,56.68,56.6824,0,/,0,Non-Bulky,Pending,,COD,Talavera Hub,1085493441,COMMON,S-01-MATOC.1,Mabini/Casulucan,Talavera Hub,,Sta Maria Hub,NO,,,,,Normal,N,Non-DG,,904,2.7,Non-Cache Booking
PH262634117983M,PH262634117983M,260108F4NJMCH6,120.904216,15.604836,A-219-TVR-bsc-SDO-020-04,San Fabian,,0,,,2026-01-08 16:15:58,2026-01-09 03:19:57,,,,Normal,0,LMHub_Received,,258,,Marketplace,55.45,55.4448,0,/,0,Non-Bulky,Pending,,COD,Talavera Hub,892050197,COMMON,S-03-ADOCO.2,SanFrancisco / San Fabian,Talavera Hub,,DOP-DTS - Geekdeals,YES,,,,,Normal,N,Non-DG,,3145,3,Non-Cache Booking
PH265959025996S,PH265959025996S,260108F7PMSQGQ,120.919025,15.584837,A-219-TVR-TVR-034-04,Marcos District (Pob.),Office,0,,,2026-01-08 22:51:17,2026-01-09 03:53:59,,,,Normal,0,LMHub_Received,,598,,Marketplace,79.35,79.3488,0,/,0,Non-Bulky,Pending,,COD,Talavera Hub,1569430393,COMMON,T-08-MARMA.2,Marcos 1,Talavera Hub,,DOP-DTS - ZNH Online Shop,YES,,,,,Normal,N,Non-DG,,900,4.115,Non-Cache Booking
PH267346386958U,PH267346386958U,260106BP4W4F59,120.85994,15.64664,A-219-TVR-SDO-024-04,Santo Rosario,Home,0,,,2026-01-08 14:31:47,2026-01-09 03:28:15,,,,Normal,0,LMHub_Received,,225,,Marketplace,107.26,107.26,0,/,0,Bulky,Pending,,COD,Talavera Hub,1172390989,COMMON,S-04-STORO.2,"Comitang / Sto Rosario 4,5,6-01-02",Talavera Hub,,DOP-DTS - Geekdeals,YES,,,,,Normal,N,Non-DG,,1016,6.9,Non-Cache Booking
PH2627414226871,PH2627414226871,260108F649186N,120.924466,15.597675,A-219-TVR-TVR-001-04,Andal Alino (Pob.),,0,,,2026-01-08 18:39:36,2026-01-09 04:12:52,,,,Normal,0,LMHub_Received,,244,,Marketplace,67.37,67.3664,0,/,0,Non-Bulky,Pending,,COD,Talavera Hub,273638481,COMMON,T-09-SALOD.2,Andal Alino,Talavera Hub,,FM DTS Cluster 7,NO,,,,,Normal,N,Non-DG,,1873,3.744,Non-Cache Booking
PH262734917960U,PH262734917960U,260107EG3540KP,120.923233,15.636757,A-219-TVR-TVR-050-04,Sicsican Matanda,Office,0,,,2026-01-08 18:11:10,2026-01-09 04:34:08,,,,Normal,0,LMHub_Received,,97,,Marketplace,42.54,42.5432,0,/,0,Non-Bulky,Pending,,COD,Talavera Hub,16947570,COMMON,T-14-TASIC.1,Tabacao 1-02,Talavera Hub,,FM DTS Cluster 6,YES,,,,,Normal,N,Non-DG,,3392,0.2,Non-Cache Booking
PH2668176450918,PH2668176450918,260108F8GU1VC3,120.89975,15.574625,A-219-TVR-SDO-008-04,Dolores,Home,0,,,2026-01-08 16:48:42,2026-01-08 22:23:38,,,,Normal,0,LMHub_Received,,430,,Marketplace,56.41,56.408,0,/,0,Non-Bulky,Pending,,COD,Talavera Hub,275277856,COMMON,S-03-ADOCO.1,San Agustin/Dolores/Concepcion,Talavera Hub,,Drop off Sellers,YES,,,,,Normal,N,Non-DG,,3474,3,Non-Cache Booking
PH266823680720Q,PH266823680720Q,260107E9P008TD,120.972524,15.667726,A-219-TVR-TVR-039-04,Pantoc Bulac,Home,0,,,2026-01-08 16:16:59,2026-01-09 03:48:58,,,,Normal,0,LMHub_Received,,638,,Marketplace,94.57,94.5728,0,/,0,Non-Bulky,Pending,,COD,Talavera Hub,582284554,COMMON,T-14-TASIC.5,Tagaytay,Talavera Hub,,FM DTS Cluster 2,YES,,,,,Normal,N,Non-DG,,1634,5.829,Non-Cache Booking
PH262115411227R,PH262115411227R,260107EFMW7QTD,120.89295,15.593244,A-219-TVR-SDO-012-04,Malasin,Home,0,,,2026-01-08 16:46:21,2026-01-09 04:27:37,,,,Normal,0,LMHub_Received,,116,,Marketplace,42.65,42.6496,0,/,0,Non-Bulky,Pending,,COD,Talavera Hub,56805873,COMMON,S-06-POBCA.1,Poblacion/Cabugao/Malasin (1),Talavera Hub,,DOP-DTS - LNR Parcel,YES,,,,,Normal,N,Non-DG,,1016,0.3,Non-Cache Booking
PH261741978178I,PH261741978178I,260107E1S5Y483,0,0,A-219-TVR-TVR-013-04,Burnay,Home,0,,,2026-01-08 16:01:36,2026-01-09 04:18:55,,,,Normal,0,LMHub_Received,,749,,Marketplace,46.19,46.1944,0,/,0,Non-Bulky,Pending,,COD,Talavera Hub,1031220817,COMMON,T-13-CAVBU.3,Burnay/Valle,Talavera Hub,,Drop off Sellers,YES,,,,,Normal,N,Non-DG,,3474,0.583,Non-Cache Booking
PH261673686647U,PH261673686647U,260108F9HF9CBU,120.917304,15.588083,A-219-TVR-TVR-037-04,Pag-Asa (Pob.),,0,,,2026-01-08 08:57:46,2026-01-09 04:37:56,,,,Normal,0,LMHub_Received,,51,,SPX Express,55.29,55.2856,0,/,0,Non-Bulky,Pending,,COD,Talavera Hub,196214868,COMMON,T-06-PAGSA.2,Pag Asa 2,Talavera Hub,,Pangasinan DC,YES,,,,,Normal,N,Non-DG,,3363,0.043,Non-Cache Booking
PH261253658041Z,PH261253658041Z,260107DTWGGBST,120.899467,15.573049,A-219-TVR-SDO-008-04,Dolores,Home,0,,,2026-01-08 15:27:02,2026-01-08 22:59:53,,,,Normal,0,LMHub_Received,,557,,Marketplace,109.12,109.1192,0,/,0,Non-Bulky,Pending,,COD,Talavera Hub,554184942,COMMON,S-03-ADOCO.1,San Agustin/Dolores/Concepcion,Talavera Hub,,FM DTS Cluster 7,YES,,,,,Normal,N,Non-DG,,3474,6.289,Non-Cache Booking
PH262333101891H,PH262333101891H,260107EBX7RYXR,120.923088,15.605527,A-219-TVR-S5-bsc-TVR-016-04,Calipahan,Home,0,,,2026-01-08 17:03:45,2026-01-09 04:33:27,,,,Normal,0,LMHub_Received,,134,,Marketplace,42.75,42.7504,0,/,0,Non-Bulky,Pending,,COD,Talavera Hub,30206645,COMMON,T-10-CALI.4,Calipahan Purok 4,Talavera Hub,,FM DTS Cluster 5,YES,,,,,Normal,N,Non-DG,,1707,1,Non-Cache Booking
PH266506051451V,PH266506051451V,260108FAJSHNM8,120.912863,15.583002,A-219-TVR-TVR-037-04,Pag-Asa (Pob.),Home,0,,,2026-01-08 16:54:44,2026-01-09 04:12:15,,,,Normal,0,LMHub_Received,,0,,Marketplace,42,42,0,/,0,Non-Bulky,Pending,,NON-COD,Talavera Hub,299909911,COMMON,T-06-PAGSA.1,Pag Asa 1,Talavera Hub,,FM DTS Cluster 3,NO,,,,,Normal,N,Non-DG,,2350,0.309,Non-Cache Booking
PH2689606499962,PH2689606499962,260107DYUD1QK5,120.929473,15.546269,A-219-TVR-TVR-040-04,Pinagpanaan,Home,0,,,2026-01-08 19:09:11,2026-01-09 04:12:03,,,,Normal,0,LMHub_Received,,236,,Marketplace,45.32,45.321600000000004,0,/,0,Non-Bulky,Pending,,COD,Talavera Hub,1005995127,COMMON,T-02-PIMUN.1,Pinagpanaan Lower,Talavera Hub,,Drop off Sellers,YES,,,,,Normal,N,Non-DG,,4657,1.44,Non-Cache Booking
PH2619270984493,PH2619270984493,260108F93VFRFB,120.931611,15.624232,A-219-TVR-TVR-010-04,Bantug Hamog (Basang Hamog),Home,0,,,2026-01-08 14:42:11,2026-01-08 22:18:19,,,,Normal,0,LMHub_Received,,223,,Marketplace,45.25,45.2488,0,/,0,Non-Bulky,Pending,,COD,Talavera Hub,1081175107,COMMON,T-14-TASIC.4,Basang Hamog / Pantoc Bulac,Talavera Hub,,Valenzuela Hub,YES,,,,,Normal,N,Non-DG,,2199,1.975,Non-Cache Booking
PH263405482528Y,PH263405482528Y,260107EDU260Q3,120.915435,15.613426,A-219-TVR-TVR-030-04,Lomboy,Home,0,,,2026-01-08 20:06:08,2026-01-09 03:14:09,,,,Normal,0,LMHub_Received,,0,,Marketplace,91,91,0,/,0,Non-Bulky,Pending,,NON-COD,Talavera Hub,106436674,COMMON,T-11-PASLO.3,Lomboy,Talavera Hub,,DOP-DTS - K.Summit,NO,,,,,Normal,N,Non-DG,,520,5.7,Non-Cache Booking
PH261845167044T,PH261845167044T,260108F6GPR06T,120.902145,15.696756,A-219-TVR-TVR-005-04,Bakal Ii,Home,0,,,2026-01-08 20:58:14,2026-01-09 04:14:16,,,,Normal,0,LMHub_Received,,0,,Marketplace,42,42,0,/,0,Non-Bulky,Pending,,NON-COD,Talavera Hub,83248710,COMMON,T-15-BAKAL.4,Bakal Dos(2),Talavera Hub,,DOP-DTS - 3PL Courier,NO,,,,,Normal,N,Non-DG,,3644,0.335,Non-Cache Booking
PH266043999960L,PH266043999960L,260108EMHKQ7DS,120.91743,15.609496,A-219-TVR-TVR-047-04,San Pascual,Home,0,,,2026-01-08 21:00:09,2026-01-09 04:12:16,,,,Normal,0,LMHub_Received,,0,,Marketplace,42,42,0,/,0,Non-Bulky,Pending,,NON-COD,Talavera Hub,83248710,COMMON,T-11-PASLO.1,San Pascual 2,Talavera Hub,,DOP-DTS - 3PL Courier,NO,,,,,Normal,N,Non-DG,,3644,0.335,Non-Cache Booking
PH261394140014W,PH261394140014W,260107DYXK3YS8,120.924934,15.634524,A-219-TVR-TVR-050-04,Sicsican Matanda,Home,0,,,2026-01-08 15:27:39,2026-01-09 03:56:41,,,,Normal,0,LMHub_Received,,235,,Marketplace,55.32,55.316,0,/,0,Non-Bulky,Pending,,COD,Talavera Hub,1599900005,COMMON,T-14-TASIC.1,Tabacao 1-02,Talavera Hub,,FM DTS Cluster 1,NO,,,,,Normal,N,Non-DG,,3632,2.195,Non-Cache Booking
PH269326705458R,PH269326705458R,260107DSXV34NU,120.920903,15.571137,A-219-TVR-TVR-029-04,La Torre,,0,,,2026-01-08 15:25:28,2026-01-09 04:08:58,,,,Normal,0,LMHub_Received,,580,,Marketplace,184.25,184.248,0,/,0,Bulky,Pending,,COD,Talavera Hub,442091905,COMMON,T-03-DILAT.4,"La Torre Purok 4,5",Talavera Hub,,FM DTS Cluster 1,YES,,,,,Normal,N,Non-DG,,3632,12,Non-Cache Booking
PH266286203597X,PH266286203597X,260107DUTP5JUA,120.88945,15.619821,A-219-TVR-SDO-002-04,Buasao,Home,0,,,2026-01-08 21:00:55,2026-01-09 04:12:35,,,,Normal,0,LMHub_Received,,183,,Marketplace,43.03,43.0248,0,/,0,Non-Bulky,Pending,,COD,Talavera Hub,83248710,COMMON,S-03-ADOCO.3,Buasao,Talavera Hub,,DOP-DTS - 3PL Courier,YES,,,,,Normal,N,Non-DG,,3644,0.183,Non-Cache Booking
PH265377191756L,PH265377191756L,260108EK4JQHSY,120.92131,15.605631,A-219-TVR-S5-bsc-TVR-016-04,Calipahan,,0,,,2026-01-08 18:14:34,2026-01-09 04:31:46,,,,Normal,0,LMHub_Received,,0,,Marketplace,42,42,0,/,0,Non-Bulky,Pending,,NON-COD,Talavera Hub,1259682779,COMMON,T-10-CALI.4,Calipahan Purok 4,Talavera Hub,,FM DTS Cluster 6,NO,,,,,Normal,N,Non-DG,,3754,1,Non-Cache Booking
PH267506620998B,PH267506620998B,260107EFJ2NS83,120.917998,15.589693,A-219-TVR-TVR-044-04,Purok Matias (Pob.),Home,0,,,2026-01-08 17:09:03,2026-01-08 22:18:41,,,,Normal,0,LMHub_Received,,0,,Marketplace,166,166,0,/,0,Bulky,Pending,,NON-COD,Talavera Hub,1091380165,COMMON,T-08-MARMA.1,Matias/Marcos,Talavera Hub,,DOP-DTS - 3PL Courier,NO,,,,,Normal,N,Non-DG,,12,10.4,Non-Cache Booking
PH267854627647S,PH267854627647S,260107EF41GUH6,120.85994,15.64664,A-219-TVR-SDO-024-04,Santo Rosario,Home,0,,,2026-01-08 15:35:17,2026-01-08 23:00:22,,,,Normal,0,LMHub_Received,,0,,Marketplace,121,121,0,/,0,Bulky,Pending,,NON-COD,Talavera Hub,1091380165,COMMON,S-04-STORO.1,"Sto Rosario 1,2,3,7",Talavera Hub,,DOP-DTS - 3PL Courier,NO,,,,,Normal,N,Non-DG,,12,7.3,Non-Cache Booking
PH2629503077604,PH2629503077604,260107DWT8AM7N,120.880106,15.591715,A-219-TVR-SDO-012-04,Malasin,Home,0,,,2026-01-08 15:16:11,2026-01-09 04:22:27,,,,Normal,0,LMHub_Received,,110,,Marketplace,42.62,42.616,0,/,0,Non-Bulky,Pending,,COD,Talavera Hub,230766090,COMMON,S-06-POBCA.1,Poblacion/Cabugao/Malasin (1),Talavera Hub,,Apalit Hub,YES,,,,,Normal,N,Non-DG,,574,0.72,Non-Cache Booking
PH267952851207R,PH267952851207R,260107E17XRY8Q,120.915913,15.636642,A-219-TVR-TVR-003-04,Bagong Silang,Home,0,,,2026-01-08 17:53:01,2026-01-09 03:42:32,,,,Normal,0,LMHub_Received,,744,,Marketplace,58.17,58.1664,0,/,0,Non-Bulky,Pending,,COD,Talavera Hub,92098146,COMMON,T-12-PASSI.2,Bagong Silang,Talavera Hub,,FM DTS Cluster 6,YES,,,,,Normal,N,Non-DG,,3394,3,Non-Cache Booking
PH2697497019645,PH2697497019645,260107DJK4JHSJ,120.923372,15.564012,A-219-TVR-TVR-029-04,La Torre,Home,0,,,2026-01-08 17:23:51,2026-01-09 03:15:38,,,,Normal,0,LMHub_Received,,1490,,Marketplace,174.34,174.344,0,/,0,Bulky,Pending,,COD,Talavera Hub,1091380165,COMMON,T-03-DILAT.1,La Torre/ Dinarayat,Talavera Hub,,DOP-DTS - 3PL Courier,YES,,,,,Normal,N,Non-DG,,12,10.4,Non-Cache Booking
PH268373115885U,PH268373115885U,260107DRDW76MN,120.915913,15.636642,A-219-TVR-TVR-003-04,Bagong Silang,Home,0,,,2026-01-08 16:41:03,2026-01-08 16:41:03,,,,Normal,0,LMHub_Received,,217,,Marketplace,55.22,55.2152,0,/,0,Non-Bulky,Pending,,COD,Talavera Hub,584495010,COMMON,T-12-PASSI.2,Bagong Silang,Talavera Hub,,Talavera Hub,YES,,,,,Normal,N,Non-DG,,1798,2.858,Non-Cache Booking
PH2687010910070,PH2687010910070,260107E3QTKKBT,120.925357,15.604569,A-219-TVR-S5-bsc-TVR-016-04,Calipahan,,0,,,2026-01-08 15:27:06,2026-01-09 03:12:20,,,,Normal,0,LMHub_Received,,1781,,Marketplace,160.97,160.9736,0,/,0,Bulky,Pending,,COD,Talavera Hub,1219126220,COMMON,T-10-CALI.3,"Calipahan Purok 2,5",Talavera Hub,,FM DTS Cluster 7,YES,,,,,Normal,N,Non-DG,,520,9.52,Non-Cache Booking
PH260253731829D,PH260253731829D,260108F7EJBYVK,120.883938,15.652184,A-219-TVR-SDO-001-04,Baloc,,0,,,2026-01-08 17:56:17,2026-01-09 03:24:53,,,,Normal,0,LMHub_Received,,446,,Marketplace,68.5,68.4976,0,/,0,Non-Bulky,Pending,,COD,Talavera Hub,1310017579,COMMON,S-01-BALOC.3,"Baloc Purok 4,5,6,7(1)",Talavera Hub,,Drop off Sellers,YES,,,,,Normal,N,Non-DG,,3474,3.95,Non-Cache Booking
PH2620526163423,PH2620526163423,260107E8CQ5EP3,120.91753,15.589272,A-219-TVR-TVR-044-04,Purok Matias (Pob.),Home,0,,,2026-01-08 20:00:55,2026-01-09 03:52:36,,,,Normal,0,LMHub_Received,,208,,Marketplace,67.17,67.1648,0,/,0,Non-Bulky,Pending,,COD,Talavera Hub,530161564,COMMON,T-08-MARMA.1,Matias/Marcos,Talavera Hub,,FM DTS Cluster 6,YES,,,,,Normal,N,Non-DG,,3754,3.2,Non-Cache Booking
PH269774881612F,PH269774881612F,260107E6UU4CRJ,0,0,A-219-TVR-SDO-008-04,Dolores,Home,0,,,2026-01-08 17:26:54,2026-01-08 17:26:54,,,,Normal,0,LMHub_Received,,0,,Marketplace,55,55,0,/,0,Non-Bulky,Pending,,NON-COD,Talavera Hub,54739553,COMMON,S-03-ADOCO.1,San Agustin/Dolores/Concepcion,Talavera Hub,,Talavera Hub,NO,,,,,Normal,N,Non-DG,,1798,0.692,Non-Cache Booking
PH262995200572P,PH262995200572P,260107DX7XYUHM,120.877706,15.599355,A-219-TVR-SDO-018-04,Sagaba,Home,0,,,2026-01-08 17:33:52,2026-01-08 17:33:52,,,,Normal,0,LMHub_Received,,298,,Marketplace,56.67,56.6688,0,/,0,Non-Bulky,Pending,,COD,Talavera Hub,1066324838,COMMON,S-05-SABUR.1,Sagaba,Talavera Hub,,Talavera Hub,NO,,,,,Normal,N,Non-DG,,1798,0.2,Non-Cache Booking
PH262338493221Z,PH262338493221Z,260108F7CAT7AS,120.914917,15.611593,A-219-TVR-TVR-047-04,San Pascual,Home,0,,,2026-01-08 20:34:57,2026-01-09 03:30:34,,,,Normal,0,LMHub_Received,,0,,Marketplace,54,54,0,/,0,Non-Bulky,Pending,,NON-COD,Talavera Hub,727712488,COMMON,T-11-PASLO.2,San Pascual 3,Talavera Hub,,Drop off Sellers,NO,,,,,Normal,N,Non-DG,,3394,2.79,Non-Cache Booking
PH263113409957O,PH263113409957O,260108F7H66MGT,120.909445,15.624184,A-219-TVR-TVR-047-04,San Pascual,Home,0,,,2026-01-08 17:50:06,2026-01-09 03:31:32,,,,Normal,0,LMHub_Received,,0,,Marketplace,44,44,0,/,0,Non-Bulky,Pending,,NON-COD,Talavera Hub,40867978,COMMON,T-12-PASSI.2,Bagong Silang,Talavera Hub,,FM DTS Cluster 2,NO,,,,,Normal,N,Non-DG,,4519,1.6,Non-Cache Booking
PH269253237972O,PH269253237972O,260107EDMDH2EJ,120.961467,15.670526,A-219-TVR-TVR-052-04,Tagaytay,Home,0,,,2026-01-08 19:19:25,2026-01-09 03:10:53,,,,Normal,0,LMHub_Received,,214,,Marketplace,55.2,55.1984,0,/,0,Non-Bulky,Pending,,COD,Talavera Hub,360983503,COMMON,T-14-TASIC.6,Bulac,Talavera Hub,,FM DTS Cluster 2,YES,,,,,Normal,N,Non-DG,,17,2.199,Non-Cache Booking
PH267657363949Y,PH267657363949Y,260107E70SFMMH,120.898926,15.603351,A-219-TVR-SDO-019-04,San Agustin,Home,0,,,2026-01-08 15:30:09,2026-01-09 03:49:54,,,,Normal,0,LMHub_Received,,108,,Marketplace,42.61,42.6048,0,/,0,Non-Bulky,Pending,,COD,Talavera Hub,360983503,COMMON,S-03-ADOCO.1,San Agustin/Dolores/Concepcion,Talavera Hub,,FM DTS Cluster 2,YES,,,,,Normal,N,Non-DG,,17,0.41,Non-Cache Booking
PH264495452534D,PH264495452534D,260108F75RXHPU,120.909445,15.624184,A-219-TVR-TVR-047-04,San Pascual,Home,0,,,2026-01-08 17:29:36,2026-01-09 03:13:46,,,,Normal,0,LMHub_Received,,0,,Marketplace,44,44,0,/,0,Non-Bulky,Pending,,NON-COD,Talavera Hub,40867978,COMMON,T-12-PASSI.2,Bagong Silang,Talavera Hub,,FM DTS Cluster 2,NO,,,,,Normal,N,Non-DG,,4519,1.6,Non-Cache Booking
PH269641186749Y,PH269641186749Y,260107EJ0CVG7N,120.91743,15.609496,A-219-TVR-TVR-047-04,San Pascual,Home,0,,,2026-01-08 22:21:03,2026-01-09 04:25:06,,,,Normal,0,LMHub_Received,,0,,Marketplace,76,76,0,/,0,Non-Bulky,Pending,,NON-COD,Talavera Hub,681356347,COMMON,T-11-PASLO.1,San Pascual 2,Talavera Hub,,DOP-DTS - 3PL Courier,NO,,,,,Normal,N,Non-DG,,12,4.143,Non-Cache Booking
PH267234398248E,PH267234398248E,260107EJ4JCSA5,120.917854,15.655127,A-219-TVR-SDO-005-04,Casulucan,Home,0,,,2026-01-08 16:10:21,2026-01-08 22:18:05,,,,Normal,0,LMHub_Received,,660,,Marketplace,139.7,139.696,0,/,0,Non-Bulky,Pending,,COD,Talavera Hub,426800077,COMMON,S-01-MATOC.1,Mabini/Casulucan,Talavera Hub,,DOP-DTS - 3PL Courier,YES,,,,,Normal,N,Non-DG,,12,8.229,Non-Cache Booking
PH262531859637V,PH262531859637V,260108F6PV4JUG,120.903654,15.706953,A-219-TVR-TVR-006-04,Bakal Iii,Home,0,,,2026-01-08 21:38:23,2026-01-09 04:04:24,,,,Normal,0,LMHub_Received,,0,,Marketplace,106,106,0,/,0,Non-Bulky,Pending,,NON-COD,Talavera Hub,1424814222,COMMON,T-16-BAKMA.1,Bakal Tres (1),Talavera Hub,,Drop off Sellers,NO,,,,,Normal,N,Non-DG,,3394,6.16,Non-Cache Booking
PH2664918391335,PH2664918391335,260108EP6HDGC9,120.904227,15.708448,A-219-TVR-TVR-006-04,Bakal Iii,Office,0,,,2026-01-08 19:38:13,2026-01-09 03:23:49,,,,Normal,0,LMHub_Received,,228,,Marketplace,152.28,152.2768,0,/,0,Bulky,Pending,,COD,Talavera Hub,184477781,COMMON,T-16-BAKMA.1,Bakal Tres (1),Talavera Hub,,FM DTS Cluster 6,YES,,,,,Normal,N,Non-DG,,2810,9.739,Non-Cache Booking
PH2676204437307,PH2676204437307,260107E2578CNN,120.884236,15.581126,A-219-TVR-SDO-010-04,Hulo,Home,0,,,2026-01-08 20:19:33,2026-01-09 04:16:11,,,,Normal,0,LMHub_Received,,0,,Marketplace,42,42,0,/,0,Non-Bulky,Pending,,NON-COD,Talavera Hub,426800077,COMMON,S-06-POBCA.4,Hulo,Talavera Hub,,DOP-DTS - 3PL Courier,NO,,,,,Normal,N,Non-DG,,12,0.18,Non-Cache Booking
PH2629011101190,PH2629011101190,260107E8HSAHA3,120.91735,15.669216,A-219-TVR-SDO-011-04,Mabini,,0,,,2026-01-08 16:01:32,2026-01-08 22:59:07,,,,Normal,0,LMHub_Received,,407,,Marketplace,68.28,68.2792,0,/,0,Non-Bulky,Pending,,COD,Talavera Hub,426800077,COMMON,S-01-MATOC.1,Mabini/Casulucan,Talavera Hub,,DOP-DTS - 3PL Courier,YES,,,,,Normal,N,Non-DG,,12,3.703,Non-Cache Booking
PH2663453029984,PH2663453029984,260107DRRQE2UT,120.904418,15.625246,A-219-TVR-SDO-021-04,San Francisco,Home,0,,,2026-01-08 16:10:24,2026-01-08 22:23:25,,,,Normal,0,LMHub_Received,,824,,Marketplace,185.61,185.6144,0,/,0,Bulky,Pending,,COD,Talavera Hub,426800077,COMMON,S-03-ADOCO.2,SanFrancisco / San Fabian,Talavera Hub,,DOP-DTS - 3PL Courier,YES,,,,,Normal,N,Non-DG,,12,11.696,Non-Cache Booking
PH2628342586601,PH2628342586601,260107E95HJN4G,120.923087,15.613352,A-219-TVR-TVR-017-04,Campos,Home,0,,,2026-01-08 20:21:08,2026-01-09 04:16:02,,,,Normal,0,LMHub_Received,,399,,Marketplace,44.23,44.2344,0,/,0,Non-Bulky,Pending,,COD,Talavera Hub,57235917,COMMON,T-13-CAVBU.1,Campos/Burnay (1),Talavera Hub,,DOP-DTS - 3PL Courier,YES,,,,,Normal,N,Non-DG,,12,0.3,Non-Cache Booking
PH263308336628I,PH263308336628I,260107EA1SQM6R,120.913153,15.620827,A-219-TVR-TVR-030-04,Lomboy,,0,,,2026-01-08 22:55:31,2026-01-09 04:45:02,,,,Normal,0,LMHub_Received,,276,,Marketplace,43.55,43.5456,0,/,0,Non-Bulky,Pending,,COD,Talavera Hub,1109966659,COMMON,T-11-PASLO.3,Lomboy,Talavera Hub,,Drop off Sellers,YES,,,,,Normal,N,Non-DG,,1879,0.6,Non-Cache Booking
PH2694965839943,PH2694965839943,260107EE9QE8B5,120.92094,15.588255,A-219-TVR-TVR-034-04,Marcos District (Pob.),Home,0,,,2026-01-08 15:53:46,2026-01-09 04:10:58,,,,Normal,0,LMHub_Received,,0,,Marketplace,44,44,0,/,0,Non-Bulky,Pending,,NON-COD,Talavera Hub,561841886,COMMON,T-08-MARMA.2,Marcos 1,Talavera Hub,,FM DTS Cluster 4,NO,,,,,Normal,N,Non-DG,,3399,1.77,Non-Cache Booking
PH264268235421T,PH264268235421T,260108F3HNG27J,120.884696,15.644315,A-219-TVR-SDO-001-04,Baloc,Home,0,,,2026-01-08 14:24:32,2026-01-08 22:22:13,,,,Normal,0,LMHub_Received,,299,,Marketplace,45.67,45.6744,0,/,0,Non-Bulky,Pending,,COD,Talavera Hub,1026061540,COMMON,S-01-BALOC.4,"Baloc Purok 4,5,6,7 (2)",Talavera Hub,,Valenzuela Hub,YES,,,,,Normal,N,Non-DG,,2199,1.975,Non-Cache Booking
PH264146064202U,PH264146064202U,260107E4B4MR27,120.92094,15.588255,A-219-TVR-TVR-034-04,Marcos District (Pob.),Office,0,,,2026-01-08 21:02:46,2026-01-09 04:46:32,,,,Normal,0,LMHub_Received,,0,,Marketplace,42,42,0,/,0,Non-Bulky,Pending,,NON-COD,Talavera Hub,1081012582,COMMON,T-08-MARMA.1,Matias/Marcos,Talavera Hub,,FM DTS Cluster 7,NO,,,,,Normal,N,Non-DG,,5008,0.5,Non-Cache Booking
PH2683172565278,PH2683172565278,260107E335R1XY,120.195159,14.944796,A-213-CAS-CAS-005-04,Magsaysay,Home,0,,,2026-01-09 04:19:42,2026-01-09 04:19:42,,,,Normal,0,LMHub_Received,,237,,Marketplace,43.33,43.3272,0,/,0,Non-Bulky,Pending,,COD,Talavera Hub,1546872078,COMMON,C-10-MGSYY.1-LR,MAGSAYSAY1,Castillejos Hub,MFM Guiguinto,Drop off Sellers,NO,,,,,Normal,N,Non-DG,,5008,0.602,Non-Cache Booking
PH263356924576E,PH263356924576E,260107E3V14D0G,120.898796,15.577911,A-219-TVR-SDO-007-04,Concepcion,,0,,,2026-01-08 20:21:23,2026-01-09 04:14:06,,,,Normal,0,LMHub_Received,,153,,Marketplace,42.86,42.8568,0,/,0,Non-Bulky,Pending,,COD,Talavera Hub,1275341358,COMMON,S-03-ADOCO.1,San Agustin/Dolores/Concepcion,Talavera Hub,,FM DTS Cluster 7,YES,,,,,Normal,N,Non-DG,,5008,0.43,Non-Cache Booking
PH2601515301757,PH2601515301757,260108ET609Q4S,120.91494,15.581656,A-219-TVR-TVR-032-04,Maestrang Kikay (Pob.),Home,0,,,2026-01-08 21:00:36,2026-01-09 04:14:18,,,,Normal,0,LMHub_Received,,196,,Marketplace,43.1,43.0976,0,/,0,Non-Bulky,Pending,,COD,Talavera Hub,1198059858,COMMON,T-05-KIKAY.1,Maestrang Kikay 1,Talavera Hub,,FM DTS Cluster 7,YES,,,,,Normal,N,Non-DG,,5008,0.2,Non-Cache Booking
PH2653932162438,PH2653932162438,260107DUWRB9K8,120.89295,15.593243,A-219-TVR-SDO-008-04,Dolores,,0,,,2026-01-08 20:59:57,2026-01-09 04:12:48,,,,Normal,0,LMHub_Received,,480,,Marketplace,44.69,44.688,0,/,0,Non-Bulky,Pending,,COD,Talavera Hub,821784557,COMMON,S-03-ADOCO.1,San Agustin/Dolores/Concepcion,Talavera Hub,,DOP-DTS - MALLESONS PLASTIC- Guiguinto,NO,,,,,Normal,N,Non-DG,,12,0.5,Non-Cache Booking
PH269490395110O,PH269490395110O,260107E44D31EM,120.91613,15.586965,A-219-TVR-TVR-037-04,Pag-Asa (Pob.),Home,0,,,2026-01-08 20:32:36,2026-01-09 03:51:43,,,,Normal,0,LMHub_Received,,1075,,Marketplace,82.02,82.02,0,/,0,Non-Bulky,Pending,,COD,Talavera Hub,1235491209,COMMON,T-06-PAGSA.2,Pag Asa 2,Talavera Hub,,DOP-DTS - DARI Trucking,YES,,,,,Normal,N,Non-DG,,3474,4.286,Non-Cache Booking
PH260548810358H,PH260548810358H,260107DS0BGW1J,120.928736,15.552355,A-219-TVR-TVR-040-04,Pinagpanaan,Home,0,,,2026-01-08 22:49:23,2026-01-09 04:34:51,,,,Normal,0,LMHub_Received,,68,,Marketplace,42.38,42.3808,0,/,0,Non-Bulky,Pending,,COD,Talavera Hub,1009730751,COMMON,T-02-PIMUN.2,Pinagpanaan Upper,Talavera Hub,,DOP-DTS - DARI Trucking,YES,,,,,Normal,N,Non-DG,,3474,0.056,Non-Cache Booking
PH269977629371F,PH269977629371F,260107DR1S2C71,120.902999,15.705205,A-219-TVR-TVR-006-04,Bakal Iii,Office,0,,,2026-01-08 22:50:35,2026-01-09 04:34:59,,,,Normal,0,LMHub_Received,,81,,Marketplace,42.45,42.4536,0,/,0,Non-Bulky,Pending,,COD,Talavera Hub,951006316,COMMON,T-16-BAKMA.1,Bakal Tres (1),Talavera Hub,,DOP-DTS - DARI Trucking,YES,,,,,Normal,N,Non-DG,,3474,0.136,Non-Cache Booking
PH2620896777020,PH2620896777020,260107DUBFSPD1,120.880106,15.591715,A-219-TVR-SDO-012-04,Malasin,Home,0,,,2026-01-08 17:37:22,2026-01-09 03:49:42,,,,Normal,0,LMHub_Received,,1161,,Marketplace,157.5,157.5016,0,/,0,Bulky,Pending,,COD,Talavera Hub,427607863,COMMON,S-06-POBCA.1,Poblacion/Cabugao/Malasin (1),Talavera Hub,,DOP-DTS - Kenlei Electronics,YES,,,,,Normal,N,Non-DG,,3474,9.744,Non-Cache Booking
PH264716639384E,PH264716639384E,260107EFW5FJAD,120.929868,15.530982,A-219-TVR-TVR-046-04,San Miguel Na Munti,,0,,,2026-01-08 22:50:52,2026-01-09 04:28:53,,,,Normal,0,LMHub_Received,,83,,Marketplace,42.47,42.4648,0,/,0,Non-Bulky,Pending,,COD,Talavera Hub,1077655694,COMMON,T-02-PIMUN.3,San Miguel lower,Talavera Hub,,DOP-DTS - DARI Trucking,YES,,,,,Normal,N,Non-DG,,1873,0.03,Non-Cache Booking
PH265774870926W,PH265774870926W,260107EBA6VAYV,120.86849,15.590497,A-219-TVR-SDO-024-04,Santo Rosario,,0,,,2026-01-08 21:03:12,2026-01-09 04:12:30,,,,Normal,0,LMHub_Received,,165,,Marketplace,42.92,42.924,0,/,0,Non-Bulky,Pending,,COD,Talavera Hub,1343835017,COMMON,S-05-SABUR.3,Mambarao / San Pascual / Pulong Buli (1),Talavera Hub,,DOP-DTS - Etrustek- Plaridel,YES,,,,,Normal,N,Non-DG,,63,0.143,Non-Cache Booking
PH268690751514L,PH268690751514L,260108EQD3FSAW,120.921821,15.58302,A-219-TVR-TVR-032-04,Maestrang Kikay (Pob.),Office,0,,,2026-01-08 14:58:33,2026-01-09 03:36:55,,,,Normal,0,LMHub_Received,,490,,Marketplace,56.74,56.744,0,/,0,Non-Bulky,Pending,,COD,Talavera Hub,651672383,COMMON,T-05-KIKAY.2,Maestrang Kikay 2,Talavera Hub,,DOP-DTS - Jhaz Express Inc,NO,,,,,Normal,N,Non-DG,,3509,2.958,Non-Cache Booking
PH268821600302L,PH268821600302L,260108EQ61EERG,120.887215,15.641101,A-219-TVR-SDO-001-04,Baloc,Home,0,,,2026-01-08 20:18:09,2026-01-09 04:13:01,,,,Normal,0,LMHub_Received,,13,,Marketplace,42.07,42.0728,0,/,0,Non-Bulky,Pending,,COD,Talavera Hub,709586154,COMMON,S-01-BALOC.4,"Baloc Purok 4,5,6,7 (2)",Talavera Hub,,DOP-DTS - DARI Trucking,YES,,,,,Normal,N,Non-DG,,3142,0.972,Non-Cache Booking
PH264819352127E,PH264819352127E,260108ENGGM12C,120.874105,15.630269,A-219-TVR-SDO-001-04,Baloc,,0,,,2026-01-08 13:45:09,2026-01-09 03:25:40,,,,Normal,0,LMHub_Received,,250,,Marketplace,67.4,67.4,0,/,0,Bulky,Pending,,COD,Talavera Hub,537045476,COMMON,S-01-BALOC.2,Baloc Purok 3,Talavera Hub,,San Isidro Hub,NO,,,,,Normal,N,Non-DG,,3509,4,Non-Cache Booking
PH264795653647P,PH264795653647P,260107DWR2Q44V,120.897608,15.697349,A-219-TVR-TVR-005-04,Bakal Ii,Office,0,,,2026-01-08 22:52:15,2026-01-09 04:35:08,,,,Normal,0,LMHub_Received,,61,,Marketplace,42.34,42.3416,0,/,0,Non-Bulky,Pending,,COD,Talavera Hub,840734962,COMMON,T-15-BAKAL.3,Bakal Dos(1),Talavera Hub,,DOP-DTS - DARI Trucking,YES,,,,,Normal,N,Non-DG,,12,0.536,Non-Cache Booking
PH2662657501024,PH2662657501024,260108EPNNWNQQ,120.887215,15.641101,A-219-TVR-SDO-001-04,Baloc,Home,0,,,2026-01-08 17:54:16,2026-01-09 03:21:31,,,,Normal,0,LMHub_Received,,0,,Marketplace,44,44,0,/,0,Non-Bulky,Pending,,NON-COD,Talavera Hub,914615135,COMMON,S-01-BALOC.4,"Baloc Purok 4,5,6,7 (2)",Talavera Hub,,Drop off Sellers,NO,,,,,Normal,N,Non-DG,,5008,1.286,Non-Cache Booking
PH269730732302K,PH269730732302K,260107DSQ469TE,120.887214,15.641101,A-219-TVR-SDO-001-04,Baloc,Home,0,,,2026-01-08 18:16:14,2026-01-09 03:56:36,,,,Normal,0,LMHub_Received,,575,,Marketplace,47.22,47.22,0,/,0,Non-Bulky,Pending,,COD,Talavera Hub,28386930,COMMON,S-01-BALOC.4,"Baloc Purok 4,5,6,7 (2)",Talavera Hub,,FM DTS Cluster 5,YES,,,,,Normal,N,Non-DG,,1707,1.8,Non-Cache Booking
PH268343047029U,PH268343047029U,260107E6PYQ4Y3,120.914801,15.586389,A-219-TVR-TVR-037-04,Pag-Asa (Pob.),Office,0,,,2026-01-08 15:56:54,2026-01-09 04:34:27,,,,Normal,0,LMHub_Received,,118,,Marketplace,66.66,66.6608,0,/,0,Non-Bulky,Pending,,COD,Talavera Hub,436446894,COMMON,T-06-PAGSA.1,Pag Asa 1,Talavera Hub,,Drop off Sellers,YES,,,,,Normal,N,Non-DG,,12,3.772,Non-Cache Booking
PH265679169982B,PH265679169982B,260107EJ2YX3YM,120.91586,15.625894,A-219-TVR-TVR-030-04,Lomboy,,0,,,2026-01-08 16:09:47,2026-01-08 22:25:09,,,,Normal,0,LMHub_Received,,499,,Marketplace,93.79,93.7944,0,/,0,Non-Bulky,Pending,,COD,Talavera Hub,1268283327,COMMON,T-11-PASLO.3,Lomboy,Talavera Hub,,DOP-DTS - MALLESONS PLASTIC- Guiguinto,YES,,,,,Normal,N,Non-DG,,12,5.143,Non-Cache Booking
PH268568024372R,PH268568024372R,260107EJ10YP1N,120.903303,15.691992,A-219-TVR-TVR-005-04,Bakal Ii,Home,0,,,2026-01-08 02:21:54,2026-01-08 22:28:50,,,,Normal,0,LMHub_Received,,0,,SPX Express,121,121,0,/,0,Bulky,Pending,,NON-COD,Talavera Hub,1598588789,COMMON,T-15-BAKAL.2,Bakal Uno (2),Talavera Hub,,PHB Scommerce,NO,,,,,Normal,N,Non-DG,,2796,7.653,Non-Cache Booking
PH268431973710R,PH268431973710R,260108EKBRFSNC,120.913488,15.586851,A-219-TVR-TVR-037-04,Pag-Asa (Pob.),Home,0,,,2026-01-08 15:02:26,2026-01-09 04:19:06,,,,Normal,0,LMHub_Received,,113,,Marketplace,42.63,42.6328,0,/,0,Non-Bulky,Pending,,COD,Talavera Hub,340161557,COMMON,T-06-PAGSA.1,Pag Asa 1,Talavera Hub,,DOP-DTS - Kledy Packaging,YES,,,,,Normal,N,Non-DG,,2199,0.408,Non-Cache Booking
PH2644566057156,PH2644566057156,260107EHMBMXCG,0,0,A-219-TVR-TVR-029-04,La Torre,Home,0,,,2026-01-08 02:38:52,2026-01-09 03:59:46,,,,Normal,0,LMHub_Received,,69,,SPX Express,42.39,42.3864,0,/,0,Non-Bulky,Pending,,COD,Talavera Hub,1195230934,COMMON,T-03-DILAT.2,"La Torre Purok 3,4",Talavera Hub,,PHB Scommerce,YES,,,,,Normal,N,Non-DG,,2796,0.926,Non-Cache Booking
PH264336471300P,PH264336471300P,260107E9UAQ0SG,120.927574,15.594561,A-219-TVR-TVR-024-04,Esguerra District (Pob.),Home,0,,,2026-01-08 16:33:28,2026-01-09 04:45:58,,,,Normal,0,LMHub_Received,,37,,Marketplace,42.21,42.2072,0,/,0,Non-Bulky,Pending,,COD,Talavera Hub,258332628,COMMON,T-07-GUERA.2,Esguerra 2,Talavera Hub,,Bulacan Hub,YES,,,,,Normal,N,Non-DG,,2459,0.5,Non-Cache Booking
PH2680512929993,PH2680512929993,260107E690FTFF,120.881473,15.568933,A-219-TVR-SDO-013-04,Malaya (Pook Malaya),,0,,,2026-01-08 18:44:05,2026-01-09 03:52:45,,,,Normal,0,LMHub_Received,,450,,Marketplace,78.52,78.52,0,/,0,Non-Bulky,Pending,,COD,Talavera Hub,1477980761,COMMON,S-06-POBCA.3,Poblacion/Cabugao/Malasin,Talavera Hub,,FM DTS Cluster 2,YES,,,,,Normal,N,Non-DG,,17,4.866,Non-Cache Booking
PH2681298973715,PH2681298973715,260107DQR6XE8U,120.942436,15.608075,A-219-TVR-TVR-020-04,Collado,Home,0,,,2026-01-08 13:40:24,2026-01-08 22:56:11,,,,Normal,0,LMHub_Received,,1294,,Marketplace,61.25,61.2464,0,/,0,Non-Bulky,Pending,,COD,Talavera Hub,236437222,COMMON,T-17-COLMA-.2,Bantug Hacienda / Collado / Mabuhay / Cabubulaunan-02,Talavera Hub,,FM DTS Cluster 7,YES,,,,,Normal,N,Non-DG,,1873,2.4,Non-Cache Booking
PH260190197086L,PH260190197086L,260107EGY3M5KG,120.924022,15.583428,A-219-TVR-TVR-045-04,Sampaloc,Home,0,,,2026-01-08 11:55:13,2026-01-09 03:27:22,,,,Normal,0,LMHub_Received,,0,,SPX Express,211,211,0,/,0,Bulky,Pending,,NON-COD,Talavera Hub,110543663,COMMON,T-09-SALOD.3,Sampaloc,Talavera Hub,,SPX Batino Warehouse,NO,,,,,Normal,N,Non-DG,,2133,13.854,Non-Cache Booking
PH267014963704M,PH267014963704M,260107EDYWNEUD,120.918817,15.583924,A-219-TVR-TVR-032-04,Maestrang Kikay (Pob.),Office,0,,,2026-01-08 16:48:24,2026-01-09 03:38:40,,,,Normal,0,LMHub_Received,,2165,,Marketplace,388.12,388.124,0,/,0,Bulky,Pending,,COD,Talavera Hub,219969537,COMMON,T-05-KIKAY.2,Maestrang Kikay 2,Talavera Hub,,FM DTS Cluster 5,NO,,,,,Normal,N,Non-DG,,4948,25,Non-Cache Booking
PH269953312050I,PH269953312050I,260107DNSCHNYP,120.910471,15.618804,A-219-TVR-TVR-047-04,San Pascual,,0,,,2026-01-08 17:29:52,2026-01-09 03:19:26,,,,Normal,0,LMHub_Received,,566,,Marketplace,47.17,47.1696,0,/,0,Non-Bulky,Pending,,COD,Talavera Hub,327490630,COMMON,T-12-PASSI.3,San Pascual 4-01,Talavera Hub,,DOP-DTS - MALLESONS PLASTIC- Guiguinto,YES,,,,,Normal,N,Non-DG,,3414,1.814,Non-Cache Booking
PH262815732838L,PH262815732838L,260107EFJF2PU4,120.913818,15.614943,A-219-TVR-TVR-047-04,San Pascual,,0,,,2026-01-08 02:23:39,2026-01-09 03:59:49,,,,Normal,0,LMHub_Received,,974,,SPX Express,47.45,47.4544,0,/,0,Non-Bulky,Pending,,COD,Talavera Hub,192703341,COMMON,T-12-PASSI.3,San Pascual 4-01,Talavera Hub,,PHB Scommerce,YES,,,,,Normal,N,Non-DG,,2796,0.355,Non-Cache Booking
PH266160544784V,PH266160544784V,260107EBK9S81B,120.917297,15.576,A-219-TVR-TVR-037-04,Pag-Asa (Pob.),Home,0,,,2026-01-08 18:06:08,2026-01-09 04:35:57,,,,Normal,0,LMHub_Received,,525,,Marketplace,68.94,68.94,0,/,0,Non-Bulky,Pending,,COD,Talavera Hub,1150871062,COMMON,T-06-PAGSA.2,Pag Asa 2,Talavera Hub,,FM DTS Cluster 7,YES,,,,,Normal,N,Non-DG,,1104,3.572,Non-Cache Booking
PH269519202716L,PH269519202716L,260107EFXSVAU7,120.915525,15.613244,A-219-TVR-TVR-047-04,San Pascual,Home,0,,,2026-01-08 22:52:45,2026-01-09 04:32:11,,,,Normal,0,LMHub_Received,,0,,Marketplace,42,42,0,/,0,Non-Bulky,Pending,,NON-COD,Talavera Hub,54469408,COMMON,T-12-PASSI.3,San Pascual 4-01,Talavera Hub,,DOP-DTS - DARI Trucking,NO,,,,,Normal,N,Non-DG,,3474,0.086,Non-Cache Booking
PH268305899641R,PH268305899641R,260107DX064FXW,120.933128,15.555724,A-219-TVR-TVR-007-04,Baluga,Home,0,,,2026-01-08 20:32:31,2026-01-09 03:31:23,,,,Normal,0,LMHub_Received,,0,,Marketplace,44,44,0,/,0,Non-Bulky,Pending,,NON-COD,Talavera Hub,827654501,COMMON,T-01-PABAH.3,Baluga,Talavera Hub,,Drop off Sellers,NO,,,,,Normal,N,Non-DG,,5008,1.429,Non-Cache Booking
PH268185148328Z,PH268185148328Z,260107E5DPTUX0,120.921294,15.598306,A-219-TVR-S5-bsc-TVR-016-04,Calipahan,Office,0,,,2026-01-08 14:39:02,2026-01-09 03:33:47,,,,Normal,0,LMHub_Received,,1694,,Marketplace,235.49,235.4864,0,/,0,Bulky,Pending,,COD,Talavera Hub,1225749766,COMMON,T-10-CALI.1,"Calipahan Purok 1,3A",Talavera Hub,,FM DTS Cluster 2,YES,,,,,Normal,N,Non-DG,,1634,14.12,Non-Cache Booking
PH262050121377T,PH262050121377T,260107EF8JFAQY,120.919701,15.581762,A-219-TVR-TVR-032-04,Maestrang Kikay (Pob.),Home,0,,,2026-01-08 21:02:16,2026-01-09 04:15:59,,,,Normal,0,LMHub_Received,,147,,Marketplace,42.82,42.8232,0,/,0,Non-Bulky,Pending,,COD,Talavera Hub,719992959,COMMON,T-05-KIKAY.1,Maestrang Kikay 1,Talavera Hub,,Drop off Sellers,YES,,,,,Normal,N,Non-DG,,5008,0.2,Non-Cache Booking
PH260986678593N,PH260986678593N,260107EF07CY0X,120.911235,15.577858,A-219-TVR-TVR-041-04,Poblacion Sur,Home,0,,,2026-01-08 15:32:01,2026-01-09 03:56:19,,,,Normal,0,LMHub_Received,,996,,Marketplace,59.58,59.577600000000004,0,/,0,Non-Bulky,Pending,,COD,Talavera Hub,867252028,COMMON,T-04-POSUR.1,Poblacion Sur 1,Talavera Hub,,DOP-DTS - Kledy Packaging,YES,,,,,Normal,N,Non-DG,,2753,3,Non-Cache Booking
PH266042962099U,PH266042962099U,260107EDQES8NB,120.8848,15.648816,A-219-TVR-SDO-001-04,Baloc,,0,,,2026-01-08 15:59:09,2026-01-09 04:12:25,,,,Normal,0,LMHub_Received,,189,,Marketplace,43.06,43.0584,0,/,0,Non-Bulky,Pending,,COD,Talavera Hub,897161871,COMMON,S-01-BALOC.4,"Baloc Purok 4,5,6,7 (2)",Talavera Hub,,DOP-DTS - LNR Parcel,YES,,,,,Normal,N,Non-DG,,520,0.6,Non-Cache Booking
PH266637048373Q,PH266637048373Q,260107EECWDSFV,120.955803,15.641816,A-219-TVR-TVR-020-04,Collado,Home,0,,,2026-01-08 14:46:14,2026-01-09 03:19:10,,,,Normal,0,LMHub_Received,,239,,Marketplace,45.34,45.3384,0,/,0,Non-Bulky,Pending,,COD,Talavera Hub,1026061540,COMMON,,,Talavera Hub,,Valenzuela Hub,YES,,,,,Normal,N,Non-DG,,2199,1.975,Non-Cache Booking
PH2697462888930,PH2697462888930,260107EBTYT8WT,120.881473,15.568933,A-219-TVR-SDO-013-04,Malaya (Pook Malaya),,0,,,2026-01-08 18:17:14,2026-01-09 04:34:37,,,,Normal,0,LMHub_Received,,263,,Marketplace,67.47,67.4728,0,/,0,Non-Bulky,Pending,,COD,Talavera Hub,187057274,COMMON,S-06-POBCA.3,Poblacion/Cabugao/Malasin,Talavera Hub,,FM DTS Cluster 6,YES,,,,,Normal,N,Non-DG,,3392,3.6,Non-Cache Booking
PH260332004683O,PH260332004683O,260107ED50DRSC,120.935249,15.587396,A-219-TVR-TVR-045-04,Sampaloc,Home,0,,,2026-01-08 15:40:39,2026-01-09 04:18:44,,,,Normal,0,LMHub_Received,,0,,Marketplace,54,54,0,/,0,Non-Bulky,Pending,,NON-COD,Talavera Hub,1376209946,COMMON,T-09-SALOD.3,Sampaloc,Talavera Hub,,FM DTS Cluster 6,NO,,,,,Normal,N,Non-DG,,2266,2.02,Non-Cache Booking
PH260147155785Y,PH260147155785Y,260107EB4RCADM,120.900761,15.633863,A-219-TVR-TVR-003-04,Bagong Silang,,0,,,2026-01-08 18:26:11,2026-01-09 03:47:57,,,,Normal,0,LMHub_Received,,0,,Marketplace,76,76,0,/,0,Bulky,Pending,,NON-COD,Talavera Hub,1540273318,COMMON,T-12-PASSI.2,Bagong Silang,Talavera Hub,,Drop off Sellers,NO,,,,,Normal,N,Non-DG,,3474,5,Non-Cache Booking
PH268843993273O,PH268843993273O,260107ECXEPN9K,120.933447,15.550405,A-219-TVR-TVR-040-04,Pinagpanaan,Home,0,,,2026-01-08 17:54:25,2026-01-09 03:41:37,,,,Normal,0,LMHub_Received,,98,,Marketplace,44.55,44.5488,0,/,0,Non-Bulky,Pending,,COD,Talavera Hub,455773979,COMMON,T-02-PIMUN.2,Pinagpanaan Upper,Talavera Hub,,FM DTS Cluster 6,YES,,,,,Normal,N,Non-DG,,1016,1.698,Non-Cache Booking
PH261054731208T,PH261054731208T,260107EBT0ATED,120.931101,15.544333,A-219-TVR-TVR-040-04,Pinagpanaan,,0,,,2026-01-08 02:25:22,2026-01-09 04:19:10,,,,Normal,0,LMHub_Received,,41,,SPX Express,42.23,42.2296,0,/,0,Non-Bulky,Pending,,COD,Talavera Hub,1195230934,COMMON,T-02-PIMUN.1,Pinagpanaan Lower,Talavera Hub,,PHB Scommerce,YES,,,,,Normal,N,Non-DG,,2796,0.055,Non-Cache Booking
PH2666122000890,PH2666122000890,260107EBC3V0R8,120.91914,15.577394,A-219-TVR-TVR-041-04,Poblacion Sur,,0,,,2026-01-08 18:03:04,2026-01-09 04:34:24,,,,Normal,0,LMHub_Received,,171,,Marketplace,42.96,42.9576,0,/,0,Non-Bulky,Pending,,COD,Talavera Hub,510219960,COMMON,T-04-POSUR.1,Poblacion Sur 1,Talavera Hub,,Drop off Sellers,NO,,,,,Normal,N,Non-DG,,2889,0.878,Non-Cache Booking
PH264266977841T,PH264266977841T,260107EC8KJPW0,120.914474,15.692973,A-219-TVR-TVR-006-04,Bakal Iii,Home,0,,,2026-01-08 01:11:27,2026-01-09 00:49:13,,,,Normal,0,LMHub_Received,,0,,SPX Express,42,42,0,/,0,Non-Bulky,Pending,,NON-COD,Talavera Hub,426377685,COMMON,T-16-BAKMA.1,Bakal Tres (1),Talavera Hub,,PHB Scommerce,NO,,,,,Normal,N,Non-DG,,2796,0.25,Non-Cache Booking
PH269566968780T,PH269566968780T,260107EATDCF0K,120.95504,15.568303,A-219-TVR-TVR-026-04,Homestead I,Home,0,,,2026-01-08 15:51:51,2026-01-09 04:09:39,,,,Normal,0,LMHub_Received,,282,,Marketplace,43.58,43.5792,0,/,0,Non-Bulky,Pending,,COD,Talavera Hub,1401686728,COMMON,T-01-PABAH.2,Homestead,Talavera Hub,,DOP-DTS - LNR Parcel,YES,,,,,Normal,N,Non-DG,,1823,1,Non-Cache Booking
PH2671435089962,PH2671435089962,260107E3SABE5V,120.926645,15.61562,A-219-TVR-TVR-017-04,Campos,,0,,,2026-01-08 16:24:26,2026-01-09 04:23:45,,,,Normal,0,LMHub_Received,,122,,Marketplace,42.68,42.6832,0,/,0,Non-Bulky,Pending,,COD,Talavera Hub,1517851112,COMMON,T-13-CAVBU.1,Campos/Burnay (1),Talavera Hub,,Drop off Sellers,YES,,,,,Normal,N,Non-DG,,1873,0.4,Non-Cache Booking
PH261982017682T,PH261982017682T,260107EAF5U2A0,120.920728,15.572875,A-219-TVR-TVR-029-04,La Torre,Office,0,,,2026-01-08 13:15:15,2026-01-09 04:33:22,,,,Normal,0,LMHub_Received,,255,,Marketplace,43.43,43.428,0,/,0,Non-Bulky,Pending,,COD,Talavera Hub,1156161787,COMMON,T-03-DILAT.4,"La Torre Purok 4,5",Talavera Hub,,DOP-DTS - HLA Online,YES,,,,,Normal,N,Non-DG,,2889,0.172,Non-Cache Booking
PH269487786766I,PH269487786766I,260107E15DR4Q6,120.920217,15.57989,A-219-TVR-TVR-037-04,Pag-Asa (Pob.),,0,,,2026-01-08 20:16:42,2026-01-09 04:35:01,,,,Normal,0,LMHub_Received,,358,,Marketplace,44.01,44.0048,0,/,0,Non-Bulky,Pending,,COD,Talavera Hub,284648478,COMMON,T-06-PAGSA.2,Pag Asa 2,Talavera Hub,,FM DTS Cluster 7,YES,,,,,Normal,N,Non-DG,,12,0.7,Non-Cache Booking
PH267347249149Y,PH267347249149Y,260107EA3JW0S1,120.892397,15.686052,A-219-TVR-TVR-004-04,Bakal I,Home,0,,,2026-01-08 10:40:07,2026-01-09 03:10:46,,,,Normal,0,LMHub_Received,,613,,SPX Express,184.43,184.4328,0,/,0,Bulky,Pending,,COD,Talavera Hub,40323623,COMMON,T-15-BAKAL.1,Bakal Uno (1),Talavera Hub,,SPX Batino Warehouse,YES,,,,,Normal,N,Non-DG,,2133,11.942,Non-Cache Booking
PH263260284650T,PH263260284650T,260107EB1UVJPG,120.89357,15.639803,A-219-TVR-SDO-001-04,Baloc,Home,0,,,2026-01-08 15:25:42,2026-01-09 03:55:56,,,,Normal,0,LMHub_Received,,0,,Marketplace,91,91,0,/,0,Bulky,Pending,,NON-COD,Talavera Hub,40495882,COMMON,S-01-BALOC.1,"Baloc Purok 1, 2, 8",Talavera Hub,,FM DTS Cluster 2,NO,,,,,Normal,N,Non-DG,,4519,6,Non-Cache Booking
PH263130686295I,PH263130686295I,260107E9FXEJ09,120.88951,15.684692,A-219-TVR-TVR-004-04,Bakal I,Home,0,,,2026-01-08 13:44:34,2026-01-09 03:42:44,,,,Normal,0,LMHub_Received,,0,,Marketplace,136,136,0,/,0,Non-Bulky,Pending,,NON-COD,Talavera Hub,1584597521,COMMON,T-15-BAKAL.1,Bakal Uno (1),Talavera Hub,,Cabuyao Hub,NO,,,,,Normal,N,Non-DG,,1634,8.915,Non-Cache Booking
PH266041287475U,PH266041287475U,260107E94SSGPD,120.92028,15.600554,A-219-TVR-S5-bsc-TVR-016-04,Calipahan,Home,0,,,2026-01-08 16:53:37,2026-01-09 03:56:33,,,,Normal,0,LMHub_Received,,106,,Marketplace,44.59,44.5936,0,/,0,Non-Bulky,Pending,,COD,Talavera Hub,455773979,COMMON,T-10-CALI.2,"Calipahan Purok 1,3B",Talavera Hub,,FM DTS Cluster 6,YES,,,,,Normal,N,Non-DG,,1016,2,Non-Cache Booking
PH264116105039Y,PH264116105039Y,260107E9B2XPCY,120.892634,15.6865,A-219-TVR-TVR-004-04,Bakal I,Home,0,,,2026-01-08 10:13:12,2026-01-09 03:06:51,,,,Normal,0,LMHub_Received,,613,,SPX Express,184.43,184.4328,0,/,0,Bulky,Pending,,COD,Talavera Hub,40323623,COMMON,T-15-BAKAL.1,Bakal Uno (1),Talavera Hub,,SPX Batino Warehouse,YES,,,,,Normal,N,Non-DG,,2133,11.942,Non-Cache Booking
PH269199432574W,PH269199432574W,260107E98PPBYD,120.947,15.561696,A-219-TVR-TVR-007-04,Baluga,Home,0,,,2026-01-08 21:20:09,2026-01-09 04:44:36,,,,Normal,0,LMHub_Received,,269,,Marketplace,45.51,45.5064,0,/,0,Non-Bulky,Pending,,COD,Talavera Hub,1026061540,COMMON,T-01-PABAH.3,Baluga,Talavera Hub,,Drop off Sellers,YES,,,,,Normal,N,Non-DG,,3474,1.975,Non-Cache Booking
PH265776590632U,PH265776590632U,260107DT5X38QQ,120.950547,15.564256,A-219-TVR-TVR-007-04,Baluga,,0,,,2026-01-08 15:45:07,2026-01-08 23:06:25,,,,Normal,0,LMHub_Received,,134,,Marketplace,54.75,54.7504,0,/,0,Non-Bulky,Pending,,COD,Talavera Hub,1208449333,COMMON,T-01-PABAH.3,Baluga,Talavera Hub,,FM DTS Cluster 7,YES,,,,,Normal,N,Non-DG,,1879,2.7,Non-Cache Booking
